"","PreK_Type","Borough","LocName","phone","address","Email","Website","lat","lon","zip","Seats","Length","Meal_Plan","Playspace","Extended_Day_Care","Priority"
"1","DOE","Brooklyn","P.S. 001 The Bergen","718-567-7661","309 47 St","aramos4@schools.nyc.gov","http://schools.nyc.gov/schoolportals/15/k001",40.6486873,-74.0112522,11220,125,"Full Day","Breakfast/Lunch","Indoor/Outdoor (onsite) ","Contact agency","None"
"2","DOE","Brooklyn","P.S. 003 The Bedford Village","718-622-2960","50 Jefferson Ave","kbeeche@schools.nyc.gov","http://schools.nyc.gov/schoolportals/13/k003",40.6823068,-73.9552409,11216,90,"Full Day","Breakfast/Lunch","Indoor/Outdoor (onsite) ","Contact agency","None"
"3","DOE","Brooklyn","P.S. 005 Dr. Ronald Mcnair","718-574-2333","820 Hancock St","lgates@schools.nyc.gov","http://schools.nyc.gov/schoolportals/16/k005",40.6856027,-73.9232122,11233,36,"Full Day","Breakfast/Lunch","Indoor/Outdoor (onsite) ","Contact agency","None"
"4","DOE","Brooklyn","P.S. 007 Abraham Lincoln","718-647-3600","858 Jamaica Ave","cnoel@schools.nyc.gov","http://schools.nyc.gov/schoolportals/19/k007",40.6895935,-73.8729894,11208,36,"Full Day","Contact agency","Contact agency","Contact agency","None"
"5","DOE","Brooklyn","P.S. 009 Teunis G Bergen","718-638-3260","80 Underhill Ave","sdavila@schools.nyc.gov","http://ps9brooklyn.org",40.6785844,-73.9663398,11238,90,"Full Day","Breakfast/Lunch","Indoor/Outdoor (onsite) ","Contact agency","None"
"6","DOE","Brooklyn","P.S. 011 Purvis J Behan","718-638-2661","419 Waverly Ave","awright3@schools.nyc.gov","http://schools.nyc.gov/schoolportals/13/k011",40.6856228,-73.9658514,11238,72,"Full Day","Breakfast/Lunch","Indoor/Outdoor (onsite) ","Contact agency","None"
"7","DOE","Brooklyn","Dr. Jacqueline Peek - Davis School","718-953-4569","430 Howard Ave","gthom2@schools.nyc.gov","http://schools.nyc.gov/schoolportals/17/k012",40.6731183,-73.920067,11233,72,"Full Day","Breakfast/Lunch","Indoor/Outdoor (onsite) ","Contact agency","None"
"8","DOE","Brooklyn","P.S. 013 Roberto Clemente","718-498-3717","557 Pennsylvania Ave","mcameron2@schools.nyc.gov","http://schools.nyc.gov/schoolportals/19/k013",40.6637837,-73.8932587,11207,36,"Full Day","Breakfast/Lunch","Indoor/Outdoor (onsite) ","Contact agency","None"
"9","DOE","Brooklyn","P.S. 015 Patrick F Daly","718-330-9280","71 Sullivan St","pwyns@schools.nyc.gov","http://ps15patrickfdaly.org",40.677069,-74.0118509,11231,84,"Full Day","Breakfast/Lunch/Snacks","Indoor/Outdoor (onsite) ","Offered","None"
"10","DOE","Brooklyn","P.S. 016 Leonard Dunkly","718-782-5352","157 Wilson St","mrenny@schools.nyc.gov","http://schools.nyc.gov/schoolportals/14/k016",40.7059151,-73.9620676,11211,72,"Full Day","Breakfast/Lunch","Indoor/Outdoor (onsite) ","Contact agency","None"
"11","DOE","Brooklyn","P.S. 017 Henry D Woodworth","718-387-2929","208 North 5 St","rmarchi@schools.nyc.gov","http://schools.nyc.gov/schoolportals/14/k017",40.7152742,-73.957057,11211,28,"Full Day","Breakfast/Lunch","Indoor/Outdoor (onsite) ","Contact agency","None"
"12","DOE","Brooklyn","P.S. 018 Edward Bush","718-387-3241","101 Maujer St","aalexan4@schools.nyc.gov","http://schools.nyc.gov/schoolportals/14/k018",40.7106552,-73.9465648,11206,36,"Full Day","Breakfast/Lunch","Indoor/Outdoor (onsite) ","Contact agency","None"
"13","DOE","Brooklyn","P.S. 020 Clinton Hill","718-834-6744","225 Adelphi St","lbarbera@schools.nyc.gov","http://schools.nyc.gov/schoolportals/13/k020",40.691059,-73.9710157,11205,54,"Full Day","Breakfast/Lunch","Indoor/Outdoor (onsite) ","Contact agency","None"
"14","DOE","Brooklyn","P.S. 021 Crispus Attucks","718-493-9681","180 Chauncey St","lfrazie@schools.nyc.gov","http://schools.nyc.gov/schoolportals/16/k021",40.680441,-73.92635,11233,54,"Full Day","Breakfast/Lunch","Indoor/Outdoor (onsite) ","Contact agency","None"
"15","DOE","Brooklyn","P.S. 023 Carter G Woodson","718-387-0375","545 Willoughby Ave","cnapoli@schools.nyc.gov","http://schools.nyc.gov/schoolportals/14/k023",40.6941556,-73.9477904,11206,36,"Full Day","Breakfast/Lunch","Indoor/Outdoor (onsite) ","Contact agency","None"
"16","DOE","Brooklyn","P.S. 024","718-832-9366","427 38 St","rdubits@schools.nyc.gov","http://schools.nyc.gov/schoolportals/15/k024",40.6528183,-74.0044959,11232,36,"Full Day","Breakfast/Lunch/Snacks","Indoor/Outdoor (onsite) ","Contact agency","None"
"17","DOE","Brooklyn","P.S. 025 Eubie Blake School","718-574-2336","787 Lafayette Ave","acoley2@schools.nyc.gov","http://schools.nyc.gov/schoolportals/16/k025",40.6914765,-73.940691,11221,36,"Full Day","Breakfast/Lunch/Snacks","Indoor/Outdoor (onsite) ","Contact agency","None"
"18","DOE","Brooklyn","P.S. 026 Jesse Owens","718-919-5707","1014 Lafayette Ave","ccelest@schools.nyc.gov","http://schools.nyc.gov/schoolportals/16/k026",40.6919757,-73.9314884,11221,18,"Full Day","Breakfast/Lunch","Indoor/Outdoor (onsite) ","Contact agency","None"
"19","DOE","Brooklyn","P.S. 028 The Warren Prep Academy","718-467-2865","1001 Herkimer St","","http://schools.nyc.gov/schoolportals/16/k028",40.6781614,-73.9202186,11233,18,"Full Day","Breakfast/Lunch","Indoor/Outdoor (onsite) ","Contact agency","None"
"20","DOE","Brooklyn","P.S. 029 John M Harrigan","718-330-9277","425 Henry St","rfagin@schools.nyc.gov","http://schools.nyc.gov/schoolportals/15/k029",40.6869349,-73.9977101,11201,54,"Full Day","Breakfast/Lunch/Snacks","Indoor/Outdoor (onsite) ","Contact agency","None"
"21","DOE","Brooklyn","P.S. 031 Samuel F Dupont","718-383-8998","75 Meserole Ave","mscarla@schools.nyc.gov","http://schools.nyc.gov/schoolportals/14/k031",40.7269875,-73.9541882,11222,108,"Full Day","Breakfast/Lunch","Indoor","Contact agency","None"
"22","DOE","Brooklyn","P.S. 032 Samuel Mills Sprole","718-222-6400","317 Hoyt St","dflorio@schools.nyc.gov","http://schools.nyc.gov/schoolportals/15/k032",40.6804309,-73.9917041,11231,30,"Full Day","Breakfast/Lunch/Snacks","Outdoor (onsite)","Contact agency","None"
"23","DOE","Brooklyn","P.S. 034 Oliver H Perry","718-389-5842","131 Norman Ave","casselt@schools.nyc.gov","http://ps34.org",40.7263917,-73.9498398,11222,18,"Full Day","Breakfast/Lunch","Indoor/Outdoor (onsite) ","Contact agency","None"
"24","DOE","Brooklyn","P.S. 038 The Pacific","718-330-9305","450 Pacific St","yramire4@schools.nyc.gov","http://schools.nyc.gov/schoolportals/15/k038",40.6849644,-73.9828242,11217,126,"Full Day","Breakfast/Lunch/Snacks","Indoor/Outdoor (onsite) ","Offered","None"
"25","DOE","Brooklyn","P.S. 039 Henry Bristow","718-330-9310","417 6 Ave","","http://ps39.org",40.6686657,-73.9829124,11215,36,"Full Day","Lunch/Snacks","Indoor/Outdoor (onsite) ","Contact agency","None"
"26","DOE","Brooklyn","P.S. 040 George W Carver","718-574-2353","265 Ralph Ave","lhibber@schools.nyc.gov","http://schools.nyc.gov/schoolportals/16/k040",40.6802016,-73.9214653,11233,36,"Full Day","Breakfast/Lunch/Snacks","Indoor/Outdoor (onsite) ","Contact agency","None"
"27","DOE","Brooklyn","P.S. 044 Marcus Garvey","718-834-6939","432 Monroe St","rjames6@schools.nyc.gov","http://schools.nyc.gov/schoolportals/13/k044",40.6862075,-73.9409238,11221,36,"Full Day","Breakfast/Lunch","Indoor/Outdoor (onsite) ","Contact agency","None"
"28","DOE","Brooklyn","P.S. 045 Horace E Greene","718-642-5360","84 Schaefer St","tlott-davis@schools.nyc.gov","http://schools.nyc.gov/schoolportals/32/k045",40.6866584,-73.910178,11207,54,"Full Day","Breakfast/Lunch","Indoor/Outdoor (onsite) ","Contact agency","None"
"29","DOE","Brooklyn","P.S. 046 Edward C Blum","718-834-7694","100 Clermont Ave","knicholson@schools.nyc.gov","http://schools.nyc.gov/schoolportals/13/k046",40.6944248,-73.9716268,11205,54,"Full Day","Breakfast/Lunch","Indoor/Outdoor (onsite) ","Contact agency","None"
"30","DOE","Brooklyn","P.S. 048 Mapleton","718-232-3873","6015 18 Ave","jmagenta@schools.nyc.gov","http://schools.nyc.gov/schoolportals/20/k048",40.6215553,-73.987279,11204,18,"Full Day","Contact agency","Contact agency","Contact agency","None"
"31","DOE","Brooklyn","P.S. 052 Sheepshead Bay","718-648-0882","2675 East 29 St","ralvare4@schools.nyc.gov","http://schools.nyc.gov/schoolportals/22/k052",40.5874041,-73.9402515,11235,72,"Full Day","Breakfast/Lunch/Snacks","Indoor/Outdoor (onsite) ","Contact agency","None"
"32","DOE","Brooklyn","P.S. 054 Samuel C Barnes","718-834-6752","195 Sanford St","lkhan@schools.nyc.gov","http://schools.nyc.gov/schoolportals/13/k054",40.6926969,-73.952501,11205,46,"Full Day","Breakfast/Lunch","Indoor/Outdoor (onsite) ","Contact agency","None"
"33","DOE","Brooklyn","P.S. 056 Lewis H Latimer","718-857-3149","170 Gates Ave","dclarkj@schools.nyc.gov","http://schools.nyc.gov/schoolportals/13/k056",40.6843355,-73.9605487,11238,18,"Full Day","Breakfast/Lunch/Snacks","Indoor/Outdoor (onsite) ","Contact agency","None"
"34","DOE","Brooklyn","P.S. 058 The Carroll","718-330-9322","330 Smith St","kdellostritto2@schools.nyc.gov","http://schools.nyc.gov/schoolportals/15/k058",40.6804297,-73.99566,11231,54,"Full Day","Breakfast/Lunch","Indoor/Outdoor (onsite) ","Contact agency","None"
"35","DOE","Brooklyn","P.S. 059 William Floyd","718-443-3600","211 Throop Ave","dbest2@schools.nyc.gov","http://schools.nyc.gov/schoolportals/14/k059",40.6977036,-73.9433424,11206,36,"Full Day","Breakfast/Lunch/Snacks","Indoor/Outdoor (onsite) ","Contact agency","None"
"36","DOE","Brooklyn","P.S. 66","718-922-3505","845 East 96 St","ljackso17@schools.nyc.gov","http://schools.nyc.gov/schoolportals/18/k066",40.6486462,-73.9068507,11236,18,"Full Day","Breakfast/Lunch/Snacks","Indoor/Outdoor (onsite) ","Contact agency","None"
"37","DOE","Brooklyn","P.S. 067 Charles A Dorsey","718-834-6756","51 Saint Edwards St","gsolomon3@schools.nyc.gov","http://schools.nyc.gov/schoolportals/13/k067",40.6951434,-73.9778888,11205,18,"Full Day","Breakfast/Lunch/Snacks","Indoor/Outdoor (onsite) ","Contact agency","None"
"38","DOE","Brooklyn","P.S. 075 Mayda Cortiella","718-574-0244","95 Grv St","ywillia@schools.nyc.gov","http://schools.nyc.gov/schoolportals/32/k075",40.693254,-73.921321,11221,54,"Full Day","Breakfast/Lunch","Indoor","Contact agency","None"
"39","DOE","Brooklyn","P.S. 081 Thaddeus Stevens","718-574-2365","990 Dekalb Ave","CAultBarker@schools.nyc.gov","http://schools.nyc.gov/schoolportals/16/k081",40.6929267,-73.9347953,11221,36,"Full Day","Breakfast/Lunch/Snacks","Indoor/Outdoor (onsite) ","Offered","None"
"40","DOE","Brooklyn","P.S. 084 Jose De Diego","718-384-8063","250 Berry St","srodrig12@schools.nyc.gov","http://schools.nyc.gov/schoolportals/14/k084",40.7148218,-73.9635161,11211,72,"Full Day","Breakfast/Lunch","Indoor/Outdoor (onsite) ","Contact agency","None"
"41","DOE","Brooklyn","P.S. 089 Cypress Hills","718-964-1180","265 Warwick St","vrodrig4@schools.nyc.gov","http://schools.nyc.gov/schoolportals/19/k089",40.6777766,-73.8866986,11207,18,"Full Day","Breakfast/Lunch","Outdoor (onsite)","Contact agency","None"
"42","DOE","Brooklyn","P.S. 90 Edna Cohen School","718-787-3333","2840 West 12 St","ghawkins@schools.nyc.gov","http://schools.nyc.gov/schoolportals/21/k090",40.5781983,-73.9801505,11224,90,"Full Day","Breakfast/Lunch/Snacks","Indoor/Outdoor (onsite) ","Contact agency","None"
"43","DOE","Brooklyn","P.S. 091 The Albany Avenue School","718-756-0243","532 Albany Ave","talleyn2@schools.nyc.gov","http://schools.nyc.gov/schoolportals/17/k091",40.6617922,-73.9404619,11203,72,"Full Day","Breakfast/Lunch","Indoor/Outdoor (onsite) ","Contact agency","None"
"44","DOE","Brooklyn","P.S. 092 Adrian Hegeman","718-462-2087","601 Parkside Ave","drahmaa@schools.nyc.gov","http://schools.nyc.gov/schoolportals/17/k092",40.6562705,-73.9541456,11226,54,"Full Day","Breakfast/Lunch","Indoor/Outdoor (onsite) ","Contact agency","None"
"45","DOE","Brooklyn","P.S. 093 William H Prescott","718-604-7363","31 New York Ave","sphilip@schools.nyc.gov","http://schools.nyc.gov/schoolportals/13/k093",40.6789073,-73.9465004,11216,36,"Full Day","Breakfast/Lunch","Indoor/Outdoor (onsite) ","Contact agency","None"
"46","DOE","Brooklyn","P.S. 095 The Gravesend","718-449-5050","345 Van Sicklen St","jndzibah@schools.nyc.gov","http://schools.nyc.gov/schoolportals/21/k095",40.5957112,-73.9751732,11223,36,"Full Day","Breakfast/Lunch","Indoor/Outdoor (onsite) ","Contact agency","None"
"47","DOE","Brooklyn","P.S. 97 The Highlawn","718-372-1800","1855 Stillwell Ave","icabello@schools.nyc.gov","http://schools.nyc.gov/schoolportals/21/k097",40.6012111,-73.9856403,11223,54,"Full Day","Breakfast/Lunch/Snacks","Indoor/Outdoor (onsite) ","Contact agency","None"
"48","DOE","Brooklyn","P.S. 099 Isaac Asimov","718-338-9201","1120 East 10 St","gpirrag@schools.nyc.gov","http://schools.nyc.gov/schoolportals/21/k099",40.6214924,-73.9660062,11230,36,"Full Day","Breakfast/Lunch","Indoor","Contact agency","None"
"49","DOE","Brooklyn","P.S. 100 The Coney Island School","718-266-9477","2951 West 3 St","ctozzi@schools.nyc.gov","http://schools.nyc.gov/schoolportals/21/k100",40.5775643,-73.970807,11224,36,"Full Day","Breakfast/Lunch","Indoor/Outdoor (onsite) ","Contact agency","None"
"50","DOE","Brooklyn","P.S. 106 Edward Everett Hale","718-574-0261","1328 Putnam Ave","rflores@schools.nyc.gov","http://schools.nyc.gov/schoolportals/32/k106",40.693691,-73.9132345,11221,36,"Full Day","Breakfast/Lunch","Indoor/Outdoor (onsite) ","Contact agency","None"
"51","DOE","Brooklyn","P.S. 108 Sal Abbracciamento","718-277-7010","200 Linwood St","chahn3@schools.nyc.gov","http://schools.nyc.gov/schoolportals/19/k108",40.681272,-73.8843465,11208,108,"Full Day","Breakfast/Lunch","Indoor/Outdoor (onsite) ","Contact agency","None"
"52","DOE","Brooklyn","P.S. 109","718-693-3426","1001 East 45 St","dchase2@schools.nyc.gov","http://schools.nyc.gov/schoolportals/22/k109",40.6360513,-73.9330797,11203,54,"Full Day","Breakfast/Lunch","Indoor/Outdoor (onsite) ","Contact agency","None"
"53","DOE","Brooklyn","P.S. 110 The Monitor","718-383-7600","124 Monitor St","tatson@schools.nyc.gov","http://ps110k.org",40.7236698,-73.9419847,11222,90,"Full Day","Breakfast/Lunch","Indoor/Outdoor (onsite) ","Contact agency","None"
"54","DOE","Brooklyn","P.S. 112 Lefferts Park","718-232-0685","7301 15 Ave","LVerdem@schools.nyc.gov","http://schools.nyc.gov/schoolportals/20/k112",40.6185893,-74.0018134,11228,20,"Full Day","Contact agency","Contact agency","Contact agency","None"
"55","DOE","Brooklyn","P.S. 114 Ryder Elementary","718-257-4428","1077 Remsen Ave","dsmith6@schools.nyc.gov","http://schools.nyc.gov/schoolportals/18/k114",40.6425436,-73.9080304,11236,54,"Full Day","Breakfast/Lunch/Snacks","Indoor/Outdoor (onsite) ","Contact agency","None"
"56","DOE","Brooklyn","P.S. 115 Daniel Mucatel School","718-241-1000","1500 East 92 St","lborgese@schools.nyc.gov","http://schools.nyc.gov/schoolportals/18/k115",40.6348511,-73.8978947,11236,108,"Full Day","Breakfast/Lunch","Indoor/Outdoor (onsite) ","Contact agency","None"
"57","DOE","Brooklyn","The Maurice Sendak Community School","718-840-5660","211 8th St","wgarraway@schools.nyc.gov","http://schools.nyc.gov/schoolportals/15/k118",40.6710166,-73.9877222,11215,66,"Full Day","Breakfast/Lunch/Snacks","Indoor/Outdoor (onsite) ","Contact agency","None"
"58","DOE","Brooklyn","P.S. 119 Amersfort","718-377-7696","3829 Ave K","lfernan5@schools.nyc.gov","http://schools.nyc.gov/schoolportals/22/k119",40.6260353,-73.9387875,11210,36,"Full Day","Breakfast/Lunch/Snacks","Indoor/Outdoor (onsite) ","Contact agency","None"
"59","DOE","Brooklyn","P.S. 120 Carlos Tapia","718-455-1000","18 Beaver St","lcaraba@schools.nyc.gov","http://schools.nyc.gov/schoolportals/14/k120",40.7006574,-73.9376928,11206,90,"Full Day","Breakfast/Lunch/Snacks","Indoor/Outdoor (onsite) ","Offered","None"
"60","DOE","Brooklyn","P.S. 121 Nelson A Rockefeller","718-377-8845","5301 20 Ave","cmagrone@schools.nyc.gov","http://schools.nyc.gov/schoolportals/21/k121",40.6228761,-73.9787743,11204,18,"Full Day","Breakfast/Lunch","Indoor/Outdoor (onsite) ","Contact agency","None"
"61","DOE","Brooklyn","P.S. 123 Suydam","718-821-4810","100 Irving Ave","aparach@schools.nyc.gov","http://schools.nyc.gov/schoolportals/32/k123",40.7039048,-73.9225744,11237,36,"Full Day","Breakfast/Lunch","Indoor","Contact agency","None"
"62","DOE","Brooklyn","P.S. 124 Silas B Dutcher","718-788-0246","515 4 Ave","aburrell2@schools.nyc.gov","http://schools.nyc.gov/schoolportals/15/k124",40.6674919,-73.990697,11215,36,"Full Day","Breakfast/Lunch","Indoor/Outdoor (onsite) ","Contact agency","None"
"63","Charter","Brooklyn","Success Academy Charter School - Cobble Hill Pre - Kindergarten","718-704-1460","284 Baltic St","SACH.MainOffice@saschools.org","http://successacademies.org/schools/cobble-hill/",40.685159,-73.9936336,11201,18,"Full Day","Contact agency","Contact agency","Contact agency","None"
"64","DOE","Brooklyn","P.S. 130 The Parkside","718-686-1940","70 Ocean Pkwy","mnunzia@schools.nyc.gov","http://ps130brooklyn.com",40.648959,-73.9758479,11218,72,"Full Day","Breakfast/Lunch","Outdoor (onsite)","Contact agency","None"
"65","DOE","Brooklyn","P.S. 131 Brooklyn","718-431-1960","4305 Ft Hamilton Pkwy","rquiles2@schools.nyc.gov","http://schools.nyc.gov/schoolportals/15/k131",40.6407837,-73.9933473,11219,36,"Full Day","Breakfast/Lunch","Indoor/Outdoor (onsite) ","Contact agency","None"
"66","DOE","Brooklyn","P.S. 132 The Conselyea School","718-599-7301","320 Manhattan Ave","blubeck@schools.nyc.gov","http://ps132andyou.net",40.7147927,-73.9457079,11211,72,"Full Day","Breakfast/Lunch","Indoor/Outdoor (onsite) ","Contact agency","None"
"67","DOE","Brooklyn","P.S. 133 William A Butler","718-398-5320","610 Baltic St","adickerson@schools.nyc.gov","http://ps133brooklyn.org",40.6800879,-73.9805771,11217,64,"Full Day","Breakfast/Lunch","Indoor/Outdoor (onsite) ","Contact agency","Two-thirds seats for District 15, One-third seats for District 13 (35% for English learners and students in child welfare system)"
"68","DOE","Brooklyn","P.S. 135 Sheldon A Brookner","718-693-4363","684 Linden Blvd","tmcrae2@schools.nyc.gov","http://schools.nyc.gov/schoolportals/18/k135",40.6532579,-73.9329753,11203,36,"Full Day","Breakfast/Lunch","Outdoor (onsite)","Contact agency","None"
"69","DOE","Brooklyn","P.S. / I.S. 137 Rachel Jean Mitchell","718-453-2926","121 Saratoga Ave","zcooper@schools.nyc.gov","http://schools.nyc.gov/schoolportals/23/k137",40.6822466,-73.9166957,11233,18,"Full Day","Breakfast/Lunch/Snacks","Indoor/Outdoor (onsite) ","Contact agency","None"
"70","DOE","Brooklyn","P.S. 138 Brooklyn","718-467-0800","760 Prospect Pl","mchauve@schools.nyc.gov","http://schools.nyc.gov/schoolportals/17/k138",40.6739449,-73.9513952,11216,72,"Full Day","Breakfast/Lunch","Indoor/Outdoor (onsite) ","Contact agency","None"
"71","DOE","Brooklyn","P.S. 139 Alexine A Fenty","718-282-5254","330 Rugby Rd","mmcdona10@schools.nyc.gov","http://schools.nyc.gov/schoolportals/22/k139",40.641322,-73.9658288,11226,54,"Full Day","Breakfast/Lunch","Outdoor (onsite)","Contact agency","None"
"72","DOE","Brooklyn","P.S. 145 Andrew Jackson","718-821-4823","100 Noll St","LMalloy@schools.nyc.gov","http://schools.nyc.gov/schoolportals/32/k145",40.7014459,-73.9323011,11206,90,"Full Day","Breakfast/Lunch","Outdoor (onsite)","Contact agency","None"
"73","DOE","Brooklyn","P.S. 146","718-923-4750","610 Henry St","amysumner@bns146.org","http://bns146.org",40.6794323,-74.0019427,11231,36,"Full Day","Breakfast/Lunch/Snacks","Indoor/Outdoor (onsite) ","Offered","Free and Reduced Lunch students after siblings"
"74","DOE","Brooklyn","P.S. 147 Isaac Remsen","718-497-0326","325 Bushwick Ave","snoyola@schools.nyc.gov","http://ps147brooklyn.org/",40.7050231,-73.9387071,11206,54,"Full Day","Breakfast/Lunch/Snacks","Indoor/Outdoor (onsite) ","Contact agency","None"
"75","DOE","Brooklyn","P.S. 149 Danny Kaye","718-385-8666","700 Sutter Ave","yschoff@schools.nyc.gov","http://schools.nyc.gov/schoolportals/19/k149",40.6693524,-73.8927603,11207,90,"Full Day","Breakfast/Lunch/Snacks","Indoor/Outdoor (onsite) ","Offered","None"
"76","DOE","Brooklyn","P.S. 151 Lyndon B Johnson","718-326-6360","763 Knickerbocker Ave","jhunt@schools.nyc.gov","http://schools.nyc.gov/schoolportals/32/k151",40.6933707,-73.9082333,11207,18,"Full Day","Breakfast/Lunch","Indoor/Outdoor (onsite) ","Contact agency","None"
"77","DOE","Brooklyn","School Of Science & Technology","718-434-5222","725 East 23 St","csheldr@schools.nyc.gov","http://schools.nyc.gov/schoolportals/22/k152",40.6327087,-73.9545697,11210,18,"Full Day","Breakfast/Lunch","Outdoor (onsite)","Contact agency","None"
"78","DOE","Brooklyn","P.S. 153 Homecrest","718-375-4484","1970 Homecrest Ave","csanta@schools.nyc.gov","http://schools.nyc.gov/schoolportals/21/k153",40.6011737,-73.9600314,11229,64,"Full Day","Breakfast/Lunch","Indoor/Outdoor (onsite) ","Contact agency","None"
"79","DOE","Brooklyn","P.S. / I.S. 155 Nicholas Herkimer","718-495-7751","1355 Herkimer St","ncortes3@schools.nyc.gov","http://schools.nyc.gov/schoolportals/23/k155",40.6776416,-73.9086945,11233,36,"Full Day","Breakfast/Lunch/Snacks","Outdoor (onsite)","Contact agency","None"
"80","DOE","Brooklyn","P.S. 156 Waverly","718-498-2811","104 Sutter Ave","23k156@schools.nyc.gov","http://156k.org",40.6652972,-73.9178843,11212,36,"Full Day","Breakfast/Lunch","Indoor/Outdoor (onsite) ","Contact agency","None"
"81","DOE","Brooklyn","P.S. 157 Benjamin Franklin","718-622-9285","850 Kent Ave","ps157@outlook.com","http://schools.nyc.gov/schoolportals/14/k157",40.6953971,-73.9600053,11205,36,"Full Day","Breakfast/Lunch/Snacks","Indoor/Outdoor (onsite) ","Contact agency","None"
"82","DOE","Brooklyn","P.S. 158 Warwick","718-277-6116","400 Ashford St","awilson3@schools.nyc.gov","http://schools.nyc.gov/schoolportals/19/k158",40.6725882,-73.8851972,11207,72,"Full Day","Breakfast/Lunch/Snacks","Indoor/Outdoor (onsite) ","Contact agency","None"
"83","DOE","Brooklyn","P.S. 161 The Crown","718-756-3100","330 Crown St","mjohnso10@schools.nyc.gov","http://schools.nyc.gov/schoolportals/17/k161",40.6659051,-73.9492002,11225,36,"Full Day","Breakfast/Lunch","Indoor/Outdoor (onsite) ","Contact agency","None"
"84","DOE","Brooklyn","P.S. 164 Caesar Rodney","718-854-4100","4211 14 Ave","esteinberg@schools.nyc.gov","http://schools.nyc.gov/schoolportals/20/k164",40.6371733,-73.985845,11219,46,"Full Day","Breakfast/Lunch/Snacks","Outdoor (onsite)","Contact agency","None"
"85","DOE","Brooklyn","P.S. 165 Ida Posner","718-495-7759","76 Lott Ave","fellers@schools.nyc.gov","http://schools.nyc.gov/schoolportals/23/k165",40.6571963,-73.9109443,11212,36,"Full Day","Breakfast/Lunch","Indoor/Outdoor (onsite) ","Contact agency","None"
"86","DOE","Brooklyn","P.S. 172 Beacon School Of Excellence","718-965-4200","825 4 Ave","jspatol@schools.nyc.gov","http://schools.nyc.gov/schoolportals/15/k172",40.6575977,-74.0000943,11232,36,"Full Day","Breakfast/Lunch","Indoor/Outdoor (onsite) ","Contact agency","None"
"87","DOE","Brooklyn","P.S. 177 The Marlboro","718-375-9506","346 Ave P","scaleca@schools.nyc.gov","http://schools.nyc.gov/schoolportals/21/k177",40.6084307,-73.9744123,11204,36,"Full Day","Breakfast/Lunch","Indoor/Outdoor (onsite) ","Contact agency","None"
"88","DOE","Brooklyn","P.S. 178 St. Clair Mckelway","718-495-7768","2163 Dean St","jhenry1@schools.nyc.gov","http://schools.nyc.gov/schoolportals/23/k178",40.6752336,-73.9153064,11233,36,"Full Day","Breakfast/Lunch/Snacks","Indoor/Outdoor (onsite) ","Contact agency","None"
"89","DOE","Brooklyn","P.S. 179 Kensington","718-438-4010","202 Ave C","bamato@schools.nyc.gov","http://ps179kensington.com",40.6402201,-73.9772671,11218,80,"Full Day","Contact agency","Contact agency","Contact agency","None"
"90","DOE","Brooklyn","The Seeall Academy","718-851-8070","5601 16 Ave","20k180@schools.nyc.gov","http://seeallacademy.com",40.6265896,-73.9894638,11204,38,"Full Day","Breakfast/Lunch","Indoor/Outdoor (onsite) ","Contact agency","None"
"91","DOE","Brooklyn","P.S. 181 Brooklyn","718-462-5298","1023 New York Ave","kgrady@schools.nyc.gov","http://schools.nyc.gov/schoolportals/17/k181",40.6480901,-73.9459114,11203,28,"Full Day","Breakfast/Lunch/Snacks","Indoor/Outdoor (onsite) ","Contact agency","None"
"92","Charter","Brooklyn","Success Academy Charter School - Williamsburg Pre - Kindergarten","718-704-1419","183 South 3rd St","SAWB.MainOffice@saschools.org","http://successacademies.org/schools/williamsburg/",40.7118634,-73.9600489,11211,18,"Full Day","Contact agency","Contact agency","Contact agency","None"
"93","DOE","Brooklyn","P.S. 184 Newport","718-495-7775","273 Newport St","llinder@schools.nyc.gov","http://schools.nyc.gov/schoolportals/23/k184",40.6602284,-73.9049467,11212,72,"Full Day","Breakfast/Lunch","Indoor/Outdoor (onsite) ","Contact agency","None"
"94","DOE","Brooklyn","P.S. 186 Dr. Irving A Gladstone","718-236-7071","7601 19 Ave","bcadotte@schools.nyc.gov","http://ps186.com",40.6111062,-73.9945926,11214,18,"Full Day","Contact agency","Contact agency","Contact agency","None"
"95","DOE","Brooklyn","P.S. 188 Michael E Berdy","718-265-7580","3314 Neptune Ave","agreen31@schools.nyc.gov","http://schools.nyc.gov/schoolportals/21/k188",40.5767764,-74.0005389,11224,36,"Full Day","Breakfast/Lunch/Snacks","Indoor/Outdoor (onsite) ","Contact agency","None"
"96","DOE","Brooklyn","P.S. 190 Sheffield","718-346-8780","590 Sheffield Ave","ssantiago11@schools.nyc.gov","http://schools.nyc.gov/schoolportals/19/k190",40.662265,-73.894749,11207,18,"Full Day","Breakfast/Lunch","Indoor/Outdoor (onsite) ","Contact agency","None"
"97","DOE","Brooklyn","P.S. 191 Paul Robeson","718-756-1206","1600 Park Pl","ecapolo@schools.nyc.gov","http://schools.nyc.gov/schoolportals/17/k191",40.6718115,-73.9241962,11233,18,"Full Day","Breakfast/Lunch","Indoor/Outdoor (onsite) ","Contact agency","None"
"98","DOE","Brooklyn","P.S. 192 - The Magnet School For Math And Science Inquiry","718-633-3061","4715 18 Ave","lisaac@schools.nyc.gov","http://ps-is192.org/",40.6289888,-73.9798624,11204,46,"Full Day","Breakfast/Lunch/Snacks","Indoor/Outdoor (onsite) ","Contact agency","None"
"99","DOE","Brooklyn","P.S. 193 Gil Hodges","718-338-9011","2515 Ave L","TBackof@schools.nyc.gov","http://gilhodgesschool.wix.com/ps193",40.6218516,-73.9502828,11210,18,"Full Day","Breakfast/Lunch/Snacks","Indoor/Outdoor (onsite) ","Contact agency","None"
"100","DOE","Brooklyn","P.S. 194 Raoul Wallenberg","718-648-8804","3117 Ave W","mzissle@schools.nyc.gov","http://schools.nyc.gov/schoolportals/22/k194",40.5974043,-73.9340849,11229,36,"Full Day","Breakfast/Lunch","Indoor/Outdoor (onsite) ","Contact agency","None"
"101","DOE","Brooklyn","P.S. 195 Manhattan Beach","718-648-9102","131 Irwin St","btoomey@schools.nyc.gov","http://schools.nyc.gov/schoolportals/22/k195",40.580244,-73.9435918,11235,18,"Full Day","Breakfast/Lunch","Indoor","Contact agency","None"
"102","DOE","Brooklyn","P.S. 196 Ten Eyck","718-497-0139","207 Bushwick Ave","mrodriguez3@schools.nyc.gov","http://schools.nyc.gov/schoolportals/14/k196",40.7087808,-73.9395289,11206,46,"Full Day","Breakfast/Lunch/Snacks","Indoor/Outdoor (onsite) ","Contact agency","None"
"103","DOE","Brooklyn","P.S. 197 - The Kings Highway Academy","718-377-7890","1599 East 22 St","rnicole@schools.nyc.gov","http://schools.nyc.gov/schoolportals/22/k197",40.6125713,-73.9515546,11210,72,"Full Day","Breakfast/Lunch","Indoor/Outdoor (onsite) ","Contact agency","None"
"104","DOE","Brooklyn","P.S. 198 Brooklyn","718-282-4920","4105 Farragut Rd","jmorgan2@schools.nyc.gov","http://schools.nyc.gov/schoolportals/22/k198",40.6369655,-73.9370092,11210,36,"Full Day","Breakfast/Lunch","Indoor/Outdoor (onsite) ","Contact agency","None"
"105","DOE","Brooklyn","P.S. 199 Frederick Wachtel","718-339-1422","1100 Elm Ave","21k199@schools.nyc.gov","http://schools.nyc.gov/schoolportals/21/k199",40.6165667,-73.9631339,11230,36,"Full Day","Breakfast/Lunch","Indoor/Outdoor (onsite) ","Contact agency","None"
"106","DOE","Brooklyn","P.S. 200 Benson School","718-236-5466","1940 Benson Ave","jmuniz@schools.nyc.gov","http://schools.nyc.gov/schoolportals/20/k200",40.6029022,-74.0018256,11214,36,"Full Day","Breakfast/Lunch","Indoor","Contact agency","None"
"107","DOE","Brooklyn","P.S. 202 Ernest S Jenkyns","718-649-7880","982 Hegeman Ave","mspence6@schools.nyc.gov","http://schools.nyc.gov/schoolportals/19/k202",40.6662563,-73.8764047,11208,54,"Full Day","Breakfast/Lunch","Indoor/Outdoor (onsite) ","Contact agency","None"
"108","NYCEEC","Brooklyn","Bais Sarah School","718-871-7571","6101 16 Ave","baissarahupk@verizon.net","",40.623886,-73.992419,11204,60,"Full Day","Contact agency","Contact agency","Contact agency","None"
"109","DOE","Brooklyn","P.S. 203 Floyd Bennett School","718-241-8488","5101 Ave M","lesposi3@schools.nyc.gov","http://schools.nyc.gov/schoolportals/22/k203",40.621911,-73.9257232,11234,126,"Full Day","Breakfast/Lunch","Indoor/Outdoor (onsite) ","Contact agency","None"
"110","DOE","Brooklyn","P.S. 204 Vince Lombardi","718-236-2906","8101 15 Ave","jlogosso@schools.nyc.gov","http://schools.nyc.gov/schoolportals/20/k204",40.6136795,-74.0063557,11228,36,"Full Day","Contact agency","Contact agency","Contact agency","None"
"111","DOE","Brooklyn","P.S. 205 Clarion","718-236-2380","6701 20 Ave","bgrater@schools.nyc.gov","http://schools.nyc.gov/schoolportals/20/k205",40.6148257,-73.9869986,11204,54,"Full Day","Breakfast/Lunch","Indoor/Outdoor (onsite) ","Contact agency","None"
"112","DOE","Brooklyn","P.S. 206 Joseph F Lamb","718-743-5598","2200 Gravesend Nck Rd","jhom42@schools.nyc.gov","http://schools.nyc.gov/schoolportals/22/k206",40.5971351,-73.948515,11229,36,"Full Day","Breakfast/Lunch","Indoor/Outdoor (onsite) ","Contact agency","None"
"113","DOE","Brooklyn","P.S. 207 Elizabeth G Leary","718-645-8667","4011 Fillmore Ave","mbosco@schools.nyc.gov","http://schools.nyc.gov/schoolportals/22/k207",40.613779,-73.9303039,11234,36,"Full Day","Breakfast/Lunch","Indoor/Outdoor (onsite) ","Contact agency","None"
"114","DOE","Brooklyn","P.S. 208 Elsa Ebeling","718-629-1670","4801 Ave D","NRenville@schools.nyc.gov","http://schools.nyc.gov/schoolportals/18/k208",40.642701,-73.9309,11203,36,"Full Day","Breakfast/Lunch","Indoor/Outdoor (onsite) ","Contact agency","None"
"115","DOE","Brooklyn","P.S. 209 Margaret Mead","718-743-1954","2609 East 7 St","flocurc@schools.nyc.gov","http://schools.nyc.gov/schoolportals/21/k209",40.5867695,-73.9614784,11235,36,"Full Day","Breakfast/Lunch","Indoor/Outdoor (onsite) ","Contact agency","None"
"116","DOE","Brooklyn","P.S. 212 Lady Deborah Moody","718-266-4841","87 Bay 49 St","jmarsel@schools.nyc.gov","http://schools.nyc.gov/schoolportals/21/k212",40.5874946,-73.9856106,11214,54,"Full Day","Breakfast/Lunch","Indoor/Outdoor (onsite) ","Contact agency","None"
"117","DOE","Brooklyn","P.S. 213 New Lots","718-257-4034","580 Hegeman Ave","smoise2@schools.nyc.gov","http://schools.nyc.gov/schoolportals/19/k213",40.6600483,-73.8902194,11207,54,"Full Day","Breakfast/Lunch/Snacks","Indoor/Outdoor (onsite) ","Contact agency","None"
"118","DOE","Brooklyn","P.S. 214 Michael Friedsam","718-647-1740","2944 Pitkin Ave","SMahabi@schools.nyc.gov","http://schools.nyc.gov/schoolportals/19/k214",40.6763238,-73.8630617,11208,108,"Full Day","Breakfast/Lunch/Snacks","Indoor/Outdoor (onsite) ","Contact agency","None"
"119","DOE","Brooklyn","P.S. 215 Morris H Weiss","718-339-2464","415 Ave S","above@schools.nyc.gov","http://schools.nyc.gov/schoolportals/21/k215",40.6024654,-73.9700719,11223,54,"Full Day","Breakfast/Lunch","Indoor/Outdoor (onsite) ","Contact agency","None"
"120","DOE","Brooklyn","P.S. 216 Arturo Toscanini","718-645-2862","350 Ave X","DNeglia@schools.nyc.gov","http://schools.nyc.gov/schoolportals/21/k216",40.5901813,-73.9696613,11223,102,"Full Day","Breakfast/Lunch","Indoor/Outdoor (onsite) ","Contact agency","None"
"121","DOE","Brooklyn","P.S. 217 Colonel David Marcus School","718-434-6960","1100 Newkirk Ave","fconti@schools.nyc.gov","http://schools.nyc.gov/schoolportals/22/k217",40.633626,-73.9662726,11230,54,"Full Day","Breakfast/Lunch","Indoor","Contact agency","None"
"122","DOE","Brooklyn","P.S. 219 Kennedy - King","718-342-0493","1060 Clarkson Ave","wsmith4@schools.nyc.gov","http://schools.nyc.gov/schoolportals/18/k219",40.6589959,-73.9224849,11212,72,"Full Day","Breakfast/Lunch","Indoor/Outdoor (offsite)","Contact agency","None"
"123","DOE","Brooklyn","P.S. 221 Toussaint L'Ouverture","718-756-0122","791 Empire Blvd","cmoodie@schools.nyc.gov","http://schools.nyc.gov/schoolportals/17/k221",40.6639361,-73.9360597,11213,54,"Full Day","Breakfast/Lunch","Indoor/Outdoor (onsite) ","Contact agency","None"
"124","DOE","Brooklyn","P.S. 222 Katherine R Snyder","718-998-4298","3301 Quentin Rd","tolivie@schools.nyc.gov","http://schools.nyc.gov/schoolportals/22/k222",40.613814,-73.9389991,11234,36,"Full Day","Breakfast/Lunch","Indoor/Outdoor (onsite) ","Contact agency","None"
"125","DOE","Brooklyn","P.S. 224 Hale A Woodruff","718-235-3600","757 Wortman Ave","gandrews@schools.nyc.gov","http://schools.nyc.gov/schoolportals/19/k224",40.6646803,-73.8658509,11208,54,"Full Day","Breakfast/Lunch/Snacks","Indoor/Outdoor (onsite) ","Contact agency","None"
"126","DOE","Brooklyn","P.S. K225 - The Eileen E Zaglin","718-743-9793","1075 Ocean Vw Ave","MCosmai@schools.nyc.gov","http://schools.nyc.gov/schoolportals/21/k225",40.57981,-73.9560103,11235,66,"Full Day","Breakfast/Lunch/Snacks","Indoor/Outdoor (offsite)","Contact agency","None"
"127","DOE","Brooklyn","P.S. 226 Alfred De Bmason","718-234-4940","6006 23 Ave","stannen2@schools.nyc.gov","http://schools.nyc.gov/schoolportals/21/k226",40.615326,-73.9769444,11204,54,"Full Day","Breakfast/Lunch/Snacks","Outdoor (onsite)","Contact agency","None"
"128","DOE","Brooklyn","P.S. 229 Dyker","718-236-5447","1400 Benson Ave","rzappul@schools.nyc.gov","http://ps229.org",40.6105773,-74.0133005,11228,30,"Full Day","Breakfast/Lunch","Indoor/Outdoor (onsite) ","Contact agency","None"
"129","DOE","Brooklyn","P.S. 230 Doris L Cohen","718-437-6135","1 Albemarle Rd","mdellaragione@schools.nyc.gov","http://schools.nyc.gov/schoolportals/15/k230",40.6453183,-73.9802923,11218,72,"Full Day","Breakfast/Lunch/Snacks","Indoor/Outdoor (offsite)","Contact agency","None"
"130","DOE","Brooklyn","P.S. 233 Langston Hughes","718-346-8103","9301 Ave B","tallen10@schools.nyc.gov","http://ps233-k12-et.schoolloop.com",40.6514078,-73.9140211,11236,72,"Full Day","Breakfast/Lunch","Indoor/Outdoor (onsite) ","Contact agency","None"
"131","DOE","Brooklyn","P.S. 235 Lenox School","718-773-4869","525 Lenox Rd","llord@schools.nyc.gov","http://schools.nyc.gov/schoolportals/18/k235",40.655042,-73.9406764,11203,36,"Full Day","Breakfast/Lunch","Indoor/Outdoor (onsite) ","Contact agency","None"
"132","DOE","Brooklyn","P.S. 236 Mill Basin","718-444-6969","6302 Ave U","alabella@schools.nyc.gov","http://schools.nyc.gov/schoolportals/22/k236",40.6157564,-73.9123755,11234,54,"Full Day","Breakfast/Lunch","Indoor/Outdoor (onsite) ","Contact agency","None"
"133","DOE","Brooklyn","P.S. 238 Anne Sullivan","718-339-4355","1633 East 8 St","hmusoff@schools.nyc.gov","http://schools.nyc.gov/schoolportals/21/k238",40.6087872,-73.9645872,11223,102,"Full Day","Breakfast/Lunch/Snacks","Indoor/Outdoor (onsite) ","Contact agency","None"
"134","DOE","Brooklyn","P.S. 241 Emma L Johnston","718-636-4725","976 President St","flucius@schools.nyc.gov","http://schools.nyc.gov/schoolportals/17/k241",40.6688839,-73.9605414,11225,72,"Full Day","Breakfast/Lunch","Outdoor (onsite)","Contact agency","None"
"135","DOE","Brooklyn","P.S. 243k - The Weeksville School","718-604-6909","1580 Dean St","khambri@schools.nyc.gov","http://schools.nyc.gov/schoolportals/16/k243",40.6757324,-73.9350819,11213,36,"Full Day","Breakfast/Lunch","Indoor/Outdoor (onsite) ","Contact agency","None"
"136","DOE","Brooklyn","P.S. 244 Richard R Green","718-346-6240","5404 Tilden Ave","dedwards@schools.nyc.gov","http://schools.nyc.gov/schoolportals/18/k244",40.6479176,-73.9256023,11203,36,"Full Day","Breakfast/Lunch","Indoor","Contact agency","None"
"137","DOE","Brooklyn","P.S. 245","718-284-2330","249 East 17th St","ewillia14@schools.nyc.gov","http://schools.nyc.gov/schoolportals/22/k245",40.6448375,-73.962837,11226,18,"Full Day","Breakfast/Lunch","Indoor/Outdoor (onsite) ","Contact agency","None"
"138","DOE","Brooklyn","P.S. 247 Brooklyn","718-236-4205","7000 21 Ave","cogno@schools.nyc.gov","http://schools.nyc.gov/schoolportals/20/k247",40.6122494,-73.9872188,11204,18,"Full Day","Breakfast/Lunch","Indoor/Outdoor (onsite) ","Contact agency","None"
"139","DOE","Brooklyn","P.S. 249 The Caton","718-282-8828","18 Marlborough Rd","ebrown4@schools.nyc.gov","http://schools.nyc.gov/schoolportals/17/k249",40.6495549,-73.966506,11226,36,"Full Day","Contact agency","Contact agency","Contact agency","None"
"140","DOE","Brooklyn","P.S. 250 George H Lindsay","718-384-0889","108 Montrose Ave","nbarnes2@schools.nyc.gov","http://schools.nyc.gov/schoolportals/14/k250",40.7067404,-73.9456643,11206,36,"Full Day","Breakfast/Lunch","Outdoor (onsite)","Contact agency","None"
"141","DOE","Brooklyn","P.S. 251 Paerdegat","718-251-4110","1037 East 54 St","sboyer@schools.nyc.gov","http://schools.nyc.gov/schoolportals/22/k251",40.6313307,-73.9238402,11234,90,"Full Day","Breakfast/Lunch","Indoor/Outdoor (onsite) ","Contact agency","None"
"142","DOE","Brooklyn","P.S. 253","718-332-3331","601 Oceanview Ave","lsperon@schools.nyc.gov","http://schools.nyc.gov/schoolportals/21/k253",40.5800844,-73.9619463,11235,36,"Full Day","Breakfast/Lunch/Snacks","Indoor/Outdoor (onsite) ","Contact agency","None"
"143","DOE","Brooklyn","P.S. 254 Dag Hammarskjold","718-743-0890","1801 Ave Y","lalhono@schools.nyc.gov","http://schools.nyc.gov/schoolportals/22/k254",40.5909008,-73.9514896,11235,54,"Full Day","Breakfast/Lunch","Indoor/Outdoor (onsite) ","Contact agency","None"
"144","DOE","Brooklyn","P.S. 255 Barbara Reing School","718-376-8494","1866 East 17 St","22k255@schools.nyc.gov","http://ps255.org",40.6044665,-73.9560036,11229,46,"Full Day","Breakfast/Lunch","Indoor/Outdoor (onsite) ","Contact agency","None"
"145","DOE","Brooklyn","P.S. 256 Benjamin Banneker","718-857-9820","114 Kosciusko St","shemphi@schools.nyc.gov","http://schools.nyc.gov/schoolportals/13/k256",40.6904818,-73.9497101,11216,18,"Full Day","Breakfast/Lunch","Indoor/Outdoor (onsite) ","Contact agency","None"
"146","DOE","Brooklyn","P.S. 257 John F Hylan","718-384-7128","60 Cook St","bjusino@schools.nyc.gov","http://schools.nyc.gov/schoolportals/14/k257",40.7028051,-73.9414858,11206,64,"Full Day","Breakfast/Lunch","Indoor/Outdoor (onsite) ","Contact agency","None"
"147","DOE","Brooklyn","P.S. 261 Philip Livingston","718-330-9275","314 Pacific St","zmills@schools.nyc.gov","http://schools.nyc.gov/schoolportals/15/k261",40.6871212,-73.9883653,11201,36,"Full Day","Breakfast/Lunch","Indoor/Outdoor (onsite) ","Contact agency","None"
"148","DOE","Brooklyn","P.S. 262 El Hajj Malik El Shabazz Elementary School","718-453-0780","500 Macon St","igarner@schools.nyc.gov","http://ps262.org/home.aspx",40.6830549,-73.9299591,11233,18,"Full Day","Breakfast/Lunch/Snacks","Indoor/Outdoor (onsite) ","Offered","None"
"149","DOE","Brooklyn","P.S. 268 Emma Lazarus","718-773-5332","133 East 53 St","VKirton@schools.nyc.gov","http://schools.nyc.gov/schoolportals/18/k268",40.6573244,-73.927558,11203,36,"Full Day","Breakfast/Lunch/Snacks","Indoor","Contact agency","None"
"150","DOE","Brooklyn","P.S. 269 Nostrand","718-941-2800","1957 Nostrand Ave","jpagan22@schools.nyc.gov","http://schools.nyc.gov/schoolportals/22/k269",40.6376173,-73.9476627,11210,36,"Full Day","Breakfast/Lunch/Snacks","Indoor/Outdoor (offsite)","Contact agency","None"
"151","DOE","Brooklyn","P.S. 270 Johann Dekalb","718-623-5280","241 Emerson Pl","sneely@schools.nyc.gov","http://schools.nyc.gov/schoolportals/13/k270",40.6896262,-73.9610938,11205,54,"Full Day","Breakfast/Lunch","Indoor/Outdoor (onsite) ","Contact agency","None"
"152","DOE","Brooklyn","P.S. 272 Curtis Estabrook","718-241-1300","101 - 24 Seaview Ave","hpinckney@schools.nyc.gov","http://schools.nyc.gov/schoolportals/18/k272",40.63642,-73.8855132,11236,64,"Full Day","Breakfast/Lunch","Indoor/Outdoor (onsite) ","Offered","None"
"153","DOE","Brooklyn","P.S. 273 Wortman","718-649-5739","923 Jerome St","mavery@schools.nyc.gov","http://schools.nyc.gov/schoolportals/19/k273",40.6578674,-73.8792887,11207,36,"Full Day","Breakfast/Lunch","Indoor/Outdoor (onsite) ","Contact agency","None"
"154","DOE","Brooklyn","P.S. 274 Kosciusko","718-574-0273","800 Bushwick Ave","mollivi@schools.nyc.gov","http://schools.nyc.gov/schoolportals/32/k274",40.694186,-73.928157,11221,54,"Full Day","Breakfast/Lunch/Snacks","Indoor/Outdoor (onsite) ","Contact agency","None"
"155","DOE","Brooklyn","P.S. 276 Louis Marshall","718-241-5757","1070 East 83 St","yfideli@schools.nyc.gov","http://schools.nyc.gov/schoolportals/18/k276",40.6339548,-73.9082542,11236,144,"Full Day","Breakfast/Lunch","Indoor/Outdoor (onsite) ","Contact agency","None"
"156","DOE","Brooklyn","P.S. 277 Gerritsen Beach","718-743-6689","2529 Gerritsen Ave","jfish3@schools.nyc.gov","http://schools.nyc.gov/schoolportals/22/k277",40.5958779,-73.9279629,11229,18,"Full Day","Breakfast/Lunch","Outdoor (onsite)","Contact agency","None"
"157","DOE","Brooklyn","P.S. 279 Herman Schreiber","718-444-4316","1070 East 104 St","trawleigh@schools.nyc.gov","http://schools.nyc.gov/schoolportals/18/k279",40.6440444,-73.8927372,11236,72,"Full Day","Breakfast/Lunch","Indoor/Outdoor (onsite) ","Contact agency","None"
"158","DOE","Brooklyn","Pre - K Center At Bishop Ford School Site","718-965-1190","500 19th St","mseide2@schools.nyc.gov","http://ps10.org",40.656204,-73.982638,11215,488,"Full Day","Breakfast/Lunch","Indoor/Outdoor (offsite)","Offered","None"
"159","DOE","Brooklyn","P.S. 282 Park Slope","718-622-1626","180 6 Ave","RHoke2@schools.nyc.gov","http://schools.nyc.gov/schoolportals/13/k282",40.676626,-73.9777835,11217,90,"Full Day","Breakfast/Lunch","Outdoor (onsite)","Contact agency","None"
"160","DOE","Brooklyn","P.S. 284 Lew Wallace","718-495-7791","213 Osborn St","jsanders2@schools.nyc.gov","http://schools.nyc.gov/schoolportals/23/k284",40.6669338,-73.9076104,11212,18,"Full Day","Breakfast/Lunch/Snacks","Indoor/Outdoor (onsite) ","Contact agency","None"
"161","DOE","Brooklyn","P.S. 287 Bailey K Ashford","718-834-4745","50 Navy St","jfrancois5@schools.nyc.gov","http://schools.nyc.gov/schoolportals/13/k287",40.6978606,-73.9810466,11201,54,"Full Day","Breakfast/Lunch","Indoor/Outdoor (onsite) ","Contact agency","None"
"162","DOE","Brooklyn","P.S. 288 The Shirley Tanyhill","718-382-2100","2950 West 25 St","dlamber3@schools.nyc.gov","http://schools.nyc.gov/schoolportals/21/k288",40.5742699,-73.9924766,11224,36,"Full Day","Breakfast/Lunch","Indoor/Outdoor (onsite) ","Contact agency","None"
"163","NYCEEC","Brooklyn","Bais Tziporah","718-436-8336","1449 39th St","btmsm@aol.com","",40.6388,-73.982766,11218,27,"Full Day","Contact agency","Contact agency","Contact agency","None"
"164","DOE","Brooklyn","P.S. 289 George V Brower","718-493-3824","900 St Marks Ave","djeffer@schools.nyc.gov","http://schools.nyc.gov/schoolportals/17/k289",40.6742397,-73.9423997,11213,48,"Full Day","Breakfast/Lunch","Indoor/Outdoor (onsite) ","Contact agency","None"
"165","DOE","Brooklyn","P.S. 290 Juan Morel Campos","718-647-1113","135 Schenck Ave","wgeorge@schools.nyc.gov","http://schools.nyc.gov/schoolportals/19/k290",40.6779316,-73.8897626,11207,18,"Full Day","Breakfast/Lunch","Outdoor (onsite)","Contact agency","None"
"166","DOE","Brooklyn","P.S. 295","718-965-0390","330 18 St","lmazza2@schools.nyc.gov","http://schools.nyc.gov/schoolportals/15/k295",40.6609691,-73.9890182,11215,54,"Full Day","Breakfast/Lunch","Outdoor (offsite)","Contact agency","None"
"167","DOE","Brooklyn","P.S. 297 Abraham Stockton","718-388-4581","700 Park Ave","jbrown28@schools.nyc.gov","http://schools.nyc.gov/schoolportals/14/k297",40.6974361,-73.947854,11206,18,"Full Day","Breakfast/Lunch","Indoor/Outdoor (offsite)","Contact agency","None"
"168","DOE","Brooklyn","P.S. 298 Dr. Betty Shabazz","718-495-7793","85 Watkins St","jdill2@schools.nyc.gov","http://schools.nyc.gov/schoolportals/23/k298",40.671012,-73.9077404,11212,46,"Full Day","Breakfast/Lunch/Snacks","Indoor/Outdoor (onsite) ","Contact agency","None"
"169","DOE","Brooklyn","P.S. 299 Thomas Warren Field","718-574-0301","88 Woodbine St","wkirk2@schools.nyc.gov","http://schools.nyc.gov/schoolportals/32/k299",40.6909968,-73.9178498,11221,36,"Full Day","Breakfast/Lunch","Indoor/Outdoor (onsite) ","Contact agency","None"
"170","DOE","Brooklyn","P.S. 305 Dr. Peter Ray","718-789-3962","344 Monroe St","jmortle@schools.nyc.gov","http://schools.nyc.gov/schoolportals/13/k305",40.6859446,-73.9453033,11216,18,"Full Day","Breakfast/Lunch/Snacks","Indoor/Outdoor (onsite) ","Contact agency","None"
"171","DOE","Brooklyn","P.S. 306 Ethan Allen","718-649-3155","970 Vermont St","lburrou2@schools.nyc.gov","http://schools.nyc.gov/schoolportals/19/k306",40.6552607,-73.8863345,11207,54,"Full Day","Breakfast/Lunch","Indoor/Outdoor (onsite) ","Contact agency","None"
"172","DOE","Brooklyn","P.S. 307 Daniel Hale Williams","718-834-4748","209 York St","rdavenport@schools.nyc.gov","http://schools.nyc.gov/schoolportals/13/k307",40.7017809,-73.981587,11201,100,"Full Day","Breakfast/Lunch","Indoor/Outdoor (onsite) ","Offered","None"
"173","DOE","Brooklyn","P.S. 308 Clara Cardwell","718-574-2373","616 Quincy St","gpatter@schools.nyc.gov","http://schools.nyc.gov/schoolportals/16/k308",40.6884471,-73.9352955,11221,28,"Full Day","Breakfast/Lunch","Indoor/Outdoor (onsite) ","Contact agency","None"
"174","DOE","Brooklyn","P.S. 309 The George E Wibecan Preparatory Academy","718-574-2381","794 Monroe St","aaponte10@schools.nyc.gov","http://schools.nyc.gov/schoolportals/16/k309",40.6881193,-73.9244409,11221,28,"Full Day","Breakfast/Lunch","Indoor/Outdoor (onsite) ","Contact agency","None"
"175","DOE","Brooklyn","P.S. 312 Bergen Beach","718-763-4015","7103 Ave T","syoo2@schools.nyc.gov","http://schools.nyc.gov/schoolportals/22/k312",40.6220316,-73.9090726,11234,54,"Full Day","Breakfast/Lunch","Indoor/Outdoor (onsite) ","Contact agency","None"
"176","DOE","Brooklyn","P.S. K315","718-421-9560","2310 Glenwood Rd","jranft@schools.nyc.gov","http://schools.nyc.gov/schoolportals/22/k315",40.632619,-73.954263,11210,18,"Full Day","Contact agency","Contact agency","Contact agency","None"
"177","DOE","Brooklyn","P.S. 316 Elijah Stroud","718-638-4043","750 Classon Ave","omaluf@schools.nyc.gov","http://schools.nyc.gov/schoolportals/17/k316",40.6745505,-73.9608666,11238,54,"Full Day","Breakfast/Lunch","Indoor/Outdoor (onsite) ","Contact agency","None"
"178","DOE","Brooklyn","P.S. 319","718-388-1588","360 Keap St","azamora@schools.nyc.gov","http://ps319williamsburg.org",40.7096257,-73.953893,11211,54,"Full Day","Breakfast/Lunch/Snacks","Indoor/Outdoor (onsite) ","Offered","None"
"179","DOE","Brooklyn","P.S. / I.S. 323","718-495-7781","210 Chester St","lharris7@schools.nyc.gov","http://schools.nyc.gov/schoolportals/23/k323",40.6662469,-73.9112701,11212,36,"Full Day","Breakfast/Lunch","Indoor/Outdoor (onsite) ","Contact agency","None"
"180","DOE","Brooklyn","The Fresh Creek School","718-272-1843","875 Williams Ave","jdanver@schools.nyc.gov","http://schools.nyc.gov/schoolportals/19/k325",40.6540103,-73.894627,11207,54,"Full Day","Breakfast/Lunch/Snacks","Indoor/Outdoor (onsite) ","Contact agency","None"
"181","DOE","Brooklyn","P.S. 326","718-241-4828","1800 Utica Ave","mfoster5@schools.nyc.gov","http://schools.nyc.gov/schoolportals/22/k326",40.6284004,-73.9281562,11234,28,"Full Day","Breakfast/Lunch","Indoor/Outdoor (onsite) ","Contact agency","None"
"182","DOE","Brooklyn","P.S. 327 Dr. Rose B English","718-495-7801","111 Bristol St","kchance@schools.nyc.gov","http://schools.nyc.gov/schoolportals/23/k327",40.6679799,-73.9120847,11212,36,"Full Day","Breakfast/Lunch","Indoor/Outdoor (onsite) ","Contact agency","None"
"183","DOE","Brooklyn","P.S. 328 Phyllis Wheatley","718-345-9393","330 Alabama Ave","bgedach@schools.nyc.gov","http://schools.nyc.gov/schoolportals/19/k328",40.6678169,-73.898173,11207,36,"Full Day","Breakfast/Lunch","Indoor/Outdoor (onsite) ","Contact agency","None"
"184","DOE","Brooklyn","P.S. 329 Surfside","718-996-3800","2929 West 30 St","smarbury@schools.nyc.gov","http://ps329.schoolwires.com",40.5748389,-73.9958066,11224,48,"Full Day","Breakfast/Lunch","Outdoor (onsite)","Contact agency","None"
"185","DOE","Brooklyn","P.S. 335 Granville T Woods","718-493-7736","130 Rochester Ave","principalthompson335@gmail.com","http://schools.nyc.gov/schoolportals/16/k335",40.6744635,-73.9283815,11213,36,"Full Day","Breakfast/Lunch","Indoor/Outdoor (onsite) ","Contact agency","None"
"186","DOE","Brooklyn","P.S. 345 Patrolman Robert Bolden","718-647-8387","111 Berriman St","wholt@schools.nyc.gov","http://schools.nyc.gov/schoolportals/19/k345",40.6761876,-73.8798861,11208,36,"Full Day","Breakfast/Lunch/Snacks","Indoor/Outdoor (onsite) ","Contact agency","None"
"187","DOE","Brooklyn","P.S. 346 Abe Stark","718-642-3000","1400 Pennsylvania Ave","kcaifa@schools.nyc.gov","http://schools.nyc.gov/schoolportals/19/k346",40.6467447,-73.881849,11239,90,"Full Day","Breakfast/Lunch","Outdoor (onsite)","Contact agency","None"
"188","DOE","Brooklyn","P.S. 361 East Flatbush Early Childhood School","718-856-0600","3109 Newkirk Ave","jcolon5@schools.nyc.gov","http://schools.nyc.gov/schoolportals/22/k361",40.6407488,-73.947079,11226,36,"Full Day","Contact agency","Contact agency","Contact agency","None"
"189","Charter","Brooklyn","Hellenic Classical Charter School","718-499-0957","646 5th Ave","JoyPetrakos@aol.com","http://hccs-nys.org",40.6629625,-73.9921057,11215,18,"Full Day","Breakfast/Lunch/Snacks","Indoor/Outdoor (offsite)","Offered","None"
"190","DOE","Brooklyn","P.S. 375 Jackie Robinson School","718-693-6655","46 Mckeever Pl","sellman@schools.nyc.gov","http://schools.nyc.gov/schoolportals/17/k375",40.6648781,-73.9595224,11225,36,"Full Day","Breakfast/Lunch/Snacks","Indoor/Outdoor (onsite) ","Offered","None"
"191","NYCEEC","Brooklyn","Bais Yaakov D'chassidei Gur","718-338-5600","1975 51st St","esmith@thejnet.com","",40.6247415,-73.9777151,11204,18,"Full Day","Contact agency","Contact agency","Contact agency","None"
"192","DOE","Brooklyn","P.S. 377 Alejandrina B De Gautier","718-574-0325","200 Woodbine St","dzagami@schools.nyc.gov","http://schools.nyc.gov/schoolportals/32/k377",40.6938167,-73.9148786,11221,36,"Full Day","Breakfast/Lunch","Outdoor (onsite)","Contact agency","None"
"193","DOE","Brooklyn","P.S. 380 John Wayne Elementary","718-388-0607","370 Marcy Ave","enunez2@schools.nyc.gov","http://schools.nyc.gov/schoolportals/14/k380",40.7018942,-73.9534592,11206,82,"Full Day","Breakfast/Lunch","Indoor/Outdoor (onsite) ","Contact agency","None"
"194","DOE","Brooklyn","P.S. / I.S. 384 Frances E Carter","718-574-0382","242 Cooper St","praulli@schools.nyc.gov","http://schools.nyc.gov/schoolportals/32/k384",40.68977,-73.9048317,11207,36,"Full Day","Breakfast/Lunch/Snacks","Indoor/Outdoor (onsite) ","Contact agency","None"
"195","DOE","Brooklyn","M.S. K394","718-756-3164","188 Rochester Ave","gshawpieters@schools.nyc.gov","http://schools.nyc.gov/schoolportals/17/k394",40.672706,-73.9289299,11213,90,"Full Day","Breakfast/Lunch","Indoor/Outdoor (onsite) ","Contact agency","None"
"196","DOE","Brooklyn","P.S. 397 Foster - Laurie","718-774-5200","490 Fenimore St","ncolon@schools.nyc.gov","http://schools.nyc.gov/schoolportals/17/k397",40.6587334,-73.9463837,11203,12,"Full Day","Breakfast/Lunch/Snacks","Indoor/Outdoor (onsite) ","Contact agency","None"
"197","DOE","Brooklyn","P.S. 398 Walter Weaver","718-774-4466","60 East 94 St","tkatanb@schools.nyc.gov","http://schools.nyc.gov/schoolportals/17/k398",40.6639657,-73.9278577,11212,72,"Full Day","Breakfast/Lunch","Indoor/Outdoor (onsite) ","Contact agency","None"
"198","DOE","Brooklyn","Christopher Avenue Community School","718-495-5761","51 Christopher Ave","dmitche5@schools.nyc.gov","http://schools.nyc.gov/schoolportals/23/k401",40.6723332,-73.9062254,11212,36,"Full Day","Breakfast/Lunch","Indoor/Outdoor (onsite) ","Contact agency","None"
"199","DOE","Brooklyn","Brooklyn Arbor Elementary School","718-963-0393","325 South 3 St","parents@brooklynarbor.org","http://brooklynarbor.org",40.7099877,-73.9547556,11211,36,"Full Day","Breakfast/Lunch/Snacks","Indoor/Outdoor (onsite) ","Contact agency","None"
"200","DOE","Brooklyn","Riverdale Avenue Community School","718-485-1679","76 Riverdale Ave","info@riverdaleavenuebrooklyn.org","http://schools.nyc.gov/schoolportals/23/k446",40.6599698,-73.9136157,11212,54,"Full Day","Breakfast/Lunch/Snacks","Indoor/Outdoor (onsite) ","Offered","None"
"201","DOE","Brooklyn","P.S. 506 : The School Of Journalism & Technology","718-492-0087","330 59 St","lsarnic@schools.nyc.gov","http://schools.nyc.gov/schoolportals/20/k506",40.641937,-74.019313,11220,18,"Full Day","Contact agency","Contact agency","Contact agency","None"
"202","DOE","Brooklyn","Sunset Park Avenues Elementary School","718-369-8330","4222 4th Ave","jrogness@schools.nyc.gov","http://sunsetparkavenues.org",40.6506652,-74.0085124,11232,54,"Full Day","Breakfast/Lunch/Snacks","Indoor/Outdoor (offsite)","Contact agency","None"
"203","DOE","Brooklyn","New Bridges Elementary","718-363-8200","1025 Eastern Pkwy","kevyn@ps532newbridges.org","http://schools.nyc.gov/schoolportals/17/k532",40.6695138,-73.9343285,11213,90,"Full Day","Breakfast/Lunch","Indoor/Outdoor (onsite) ","Contact agency","None"
"204","DOE","Brooklyn","Brooklyn Gardens Elementary School","718-495-7012","574 Dumont Ave","19k557@schools.nyc.gov","http://schools.nyc.gov/schoolportals/19/k557",40.6655567,-73.8976406,11207,36,"Full Day","Breakfast/Lunch","Indoor/Outdoor (onsite) ","Contact agency","None"
"205","DOE","Brooklyn","Brooklyn Landmark Elementary School","718-443-2747","251 Mcdougal St","bklandmark@gmail.com","http://schools.nyc.gov/schoolportals/23/k599",40.6802624,-73.9111503,11233,36,"Full Day","Breakfast/Lunch/Snacks","Indoor/Outdoor (onsite) ","Contact agency","None"
"206","DOE","Brooklyn","Brighter Choice Community School","718-574-2378","280 Hart St","fmcintosh2@schools.nyc.gov","http://schools.nyc.gov/schoolportals/16/k627",40.6937607,-73.9407315,11206,18,"Full Day","Breakfast/Lunch","Indoor/Outdoor (onsite) ","Contact agency","None"
"207","DOE","Brooklyn","Brooklyn Brownstone School","718-573-2307","272 Macdonough St","sgibbs4@schools.nyc.gov","http://schools.nyc.gov/schoolportals/16/k628",40.6817075,-73.9357224,11233,36,"Full Day","Breakfast/Lunch","Indoor/Outdoor (offsite)","Contact agency","None"
"208","DOE","Brooklyn","Young Scholars' Academy For Discovery And Exploration","718-453-4081","280 Hart St","tallen3@schools.nyc.gov","http://schools.nyc.gov/schoolportals/16/k636",40.6937607,-73.9407315,11206,36,"Full Day","Breakfast/Lunch","Indoor/Outdoor (onsite) ","Contact agency","None"
"209","Charter","Brooklyn","Pave Academy Charter School","917-803-0380","76 Lorraine St","cwestendarp@paveacademy.org","",40.6741673,-74.0068921,11231,36,"Full Day","Contact agency","Contact agency","Contact agency","None"
"210","DOE","Brooklyn","Red Hook Neighborhood School","718-330-2238","27 Huntington St","rbrown24@schools.nyc.gov","http://schools.nyc.gov/schoolportals/15/k676",40.6778469,-74.0048179,11231,36,"Full Day","Breakfast/Lunch","Indoor/Outdoor (onsite) ","Contact agency","None"
"211","DOE","Brooklyn","East New York Elementary School Of Excellence","718-272-6075","605 Shepherd Ave","jtouzin@schools.nyc.gov","http://schools.nyc.gov/schoolportals/19/k677",40.6695679,-73.8791893,11208,30,"Full Day","Breakfast/Lunch","Outdoor (onsite)","Contact agency","None"
"212","Charter","Brooklyn","Community Partnership Charter School Pre - Kindergarten","718-399-3824","241 Emerson Pl","info@cpcsschool.org","http://cpcsschool.org/",40.6896262,-73.9610938,11205,18,"Full Day","Contact agency","Contact agency","Contact agency","None"
"213","DOE","Brooklyn","Brooklyn Arts And Science Elementary School","718-230-0851","443 St Marks Ave","brooklynartselementary@gmail.com","http://schools.nyc.gov/schoolportals/17/k705",40.6770364,-73.9600737,11238,72,"Full Day","Breakfast/Lunch","Indoor/Outdoor (onsite) ","Contact agency","20% seats for English learners and students in child welfare system. Contact school for details"
"214","DOE","Brooklyn","P.S. 748 Brooklyn School For Global Scholars","718-382-3130","1664 Benson Ave","dsalerno4@schools.nyc.gov","http://ps748scholars.com",40.6069424,-74.0073269,11214,36,"Full Day","Breakfast/Lunch","Indoor/Outdoor (onsite) ","Contact agency","None"
"215","DOE","Brooklyn","P.S. 770 New American Academy","718-221-5837","60 East 94 St","jsaratovsky@thenewamericanacademy.org","http://schools.nyc.gov/schoolportals/17/k770",40.6639657,-73.9278577,11212,36,"Full Day","Breakfast/Lunch/Snacks","Indoor/Outdoor (onsite) ","Offered","None"
"216","NYCEEC","Brooklyn","Adelphi Academy Of Brooklyn","718-238-3308","8515 Rdg Blvd","romanosi@adelphinyc.org","",40.6245097,-74.0329538,11209,36,"Full Day","Contact agency","Contact agency","Contact agency","None"
"217","NYCEEC","Brooklyn","Associated Beth Rivkah School - UPK","718-735-0400","470 Lefferts Ave","stenenbaum@bethrivkah.edu","",40.66225,-73.9461721,11225,80,"5-Hour","Contact agency","Contact agency","Contact agency","None"
"218","NYCEEC","Brooklyn","Bais Yaakov Academy UPK","718-339-4747","1213 Elm Ave","mlevin@gamlacollege.com","",40.6173167,-73.9621469,11230,60,"5-Hour","Contact agency","Contact agency","Contact agency","None"
"219","NYCEEC","Brooklyn","Yeshiva Jesode Hatorah","718-302-7500","563 Bedford Ave","vien@thejnet.com","",40.7042553,-73.960942,11211,34,"5-Hour","Breakfast/Snacks","Outdoor (onsite)","Offered","None"
"220","NYCEEC","Brooklyn","Barkai Yeshivah","718-998-7473","5302 21 Ave","bmorano@barkaionline.org","",40.6219355,-73.9770497,11204,40,"5-Hour","Contact agency","Contact agency","Contact agency","None"
"221","NYCEEC","Brooklyn","Battalion Christian Academy","718-774-5447","780 Schenectady Ave","alcockfiled@gmail.com","",40.654282,-73.9338889,11203,36,"Full Day","Breakfast/Lunch/Snacks","Outdoor (onsite/offsite)","Offered","None"
"222","NYCEEC","Brooklyn","Be - Er Hagolah Institutes","718-642-6800","671 Louisiana Ave","bhagolah@aol.com","http://beerhagolah.org",40.6459269,-73.8829678,11239,72,"Full Day","Breakfast/Lunch/Snacks","Indoor/Outdoor (onsite) ","Offered","None"
"223","NYCEEC","Brooklyn","Bambi Day Care","718-645-7010","1981 Homecrest Ave","info@bambiacademy.com","http://bambidaycarecenter.com",40.6012358,-73.9594566,11229,60,"Full Day","Breakfast/Lunch/Snacks","Indoor/Outdoor (onsite) ","Offered","None"
"224","NYCEEC","Brooklyn","Bnos Menachem","718-493-1100","739 East New York Ave","bnos.menachem@verizon.net","http://bnosmenachem.org",40.6625797,-73.9380221,11203,18,"5-Hour","Breakfast","Outdoor (onsite/offsite)","Offered","None"
"225","NYCEEC","Brooklyn","Zion Day Care","718-438-2862","5000 14th Ave","Zion.daycare@thejnet.com","",40.6330942,-73.9909344,11219,40,"Full Day","Breakfast/Lunch","Outdoor (offsite)","Not offered","Income and other eligibility requirements apply"
"226","NYCEEC","Brooklyn","Gan DCC","718-435-2812","4206 - 10 15th Ave","gandaycare@verizon.net","",40.6362499,-73.9841299,11219,47,"Full Day","Contact agency","Contact agency","Contact agency","Income and other eligibility requirements apply"
"227","NYCEEC","Brooklyn","Brooklyn Amity School","718-891-6100","3867 Shr Pkwy","kidschoicepreschool@verizon.net","",40.586385,-73.9324984,11235,30,"Full Day","Contact agency","Contact agency","Contact agency","None"
"228","NYCEEC","Brooklyn","Dimitrios & Georgia Kaloidis P.S. Of Holy Cross Goc","718-836-8096","8502 Rdg Blvd","","http://dgkschool.com",40.6247563,-74.0339332,11209,72,"Full Day","Breakfast/Lunch","Indoor/Outdoor (onsite) ","Not offered","None"
"229","NYCEEC","Brooklyn","Epiphany Lutheran School","718-773-7200","721 Lincoln Pl","Crafton@foch.biz","",40.6711295,-73.9525875,11216,30,"Full Day","Lunch/Snacks","Indoor/Outdoor (onsite) ","Offered","None"
"230","NYCEEC","Brooklyn","Good Shepherd School","718-339-2745","1943 Brown St","princpap@aol.com","",40.6044366,-73.9403541,11229,36,"Full Day","Lunch/Snacks","Indoor/Outdoor (onsite) ","Offered","None"
"231","NYCEEC","Brooklyn","HIDEC","718-377-7507","1401 Ave I","hidec@verizon.net","",40.6277168,-73.9625847,11230,48,"Full Day","Breakfast/Lunch/Snacks","Indoor/Outdoor (onsite) ","Not offered","None"
"232","NYCEEC","Brooklyn","Masores Bais Yaakov","718-692-2424","1395 Ocean Ave","g.celnik@masores.com","",40.6283753,-73.9565309,11230,60,"5-Hour","Contact agency","Contact agency","Contact agency","None"
"233","NYCEEC","Brooklyn","Gateway City Academy","718-921-3737","257 Bay Rdg Ave","gca@gatewaycityacademy.net","http://gatewaycityacademy.net",40.6361658,-74.0267465,11220,143,"Full Day","Contact agency","Contact agency","Contact agency","None"
"234","NYCEEC","Brooklyn","Phyl's Academy","718-469-9400","3520 Tilden Ave","info@phylsacademyny.com","http://phylsacademyny.com",40.6467597,-73.9436873,11203,144,"Full Day","Contact agency","Indoor/Outdoor (onsite) ","Offered","None"
"235","NYCEEC","Brooklyn","Prospect Park Yeshiva","718-376-5959","1784 East 17 St","dkelman@bloppy.org","",40.6061728,-73.9566011,11229,36,"5-Hour","Contact agency","Contact agency","Contact agency","None"
"236","NYCEEC","Brooklyn","St. Anselm Catholic Academy","718-745-7643","365 83 St","jmckeon@diobrook.org","http://www.sacany.org/",40.6253638,-74.0277625,11209,72,"Full Day","Contact agency","Contact agency","Contact agency","None"
"237","NYCEEC","Brooklyn","St. Athanasius School","718-236-4791","6120 Bay Pkwy","dianecompetello@gmail.com","http://stathanasiusschool.org",40.6159513,-73.9797588,11204,60,"Full Day","Contact agency","Contact agency","Contact agency","None"
"238","NYCEEC","Brooklyn","Heartshare Human Services Of New York","718-238-4637","1825 Bath Ave","jill.fitzgerald@heartshare.org","http://heartshare.org",40.6038293,-74.0049602,11214,40,"Full Day","Breakfast/Lunch","Outdoor (onsite/offsite)","Not offered","None"
"239","NYCEEC","Brooklyn","St. Frances Cabrini Catholic Academy","718-386-9277","181 Suydam St","wanda.marty@sfc-ca.net","http://sfc-ca.com",40.69997,-73.926136,11221,72,"Full Day","Breakfast/Lunch","Indoor/Outdoor (onsite) and Outdoor (offsite)","Offered","None"
"240","NYCEEC","Brooklyn","St. Francis Of Assisi","718-778-3700","400 Lincoln Rd","c14upk@yahoo.com","http://sfabrooklyn.org",40.6614613,-73.949071,11225,36,"Full Day","Contact agency","Indoor/Outdoor (onsite) ","Offered","None"
"241","NYCEEC","Brooklyn","St. Mark School","718-332-9304","2602 East 19th St","jvok@smsonthebay.com","http://smsonthebay.com",40.5879668,-73.9509062,11235,36,"Full Day","Contact agency","Indoor/Outdoor (onsite) ","Offered","None"
"242","NYCEEC","Brooklyn","St. Peter Catholic Academy","718-372-0025","8401 23rd Ave","smmjsfc@aol.com","http://stpeteracademy-brooklyn.org/",40.6013335,-73.9903636,11214,72,"Full Day","Contact agency","Contact agency","Contact agency","None"
"243","NYCEEC","Brooklyn","St. Gregory The Great Catholic Academy","917-972-9673","2520 Church Ave","sgg991@yahoo.com","",40.6501841,-73.9538151,11226,36,"Full Day","Contact agency","Contact agency","Contact agency","None"
"244","NYCEEC","Brooklyn","Cheder, The","718-252-6333","129 Elmwood Ave","cheder_upk@netzero.net","",40.6270544,-73.9760424,11230,40,"Full Day","Breakfast/Lunch/Snacks","Indoor/Outdoor (onsite) ","Not offered","None"
"245","NYCEEC","Brooklyn","Yeshivas Boyan Tifereth Mordechai Shlomo","718-435-6060","1205 44 St","boyan@verizon.net","",40.6390874,-73.9912544,11219,30,"Full Day","Contact agency","Contact agency","Contact agency","None"
"246","NYCEEC","Brooklyn","Yeshiva Karlin Stolin","718-232-7800","1801 55th St","dstein@yks.edu","",40.6248149,-73.9840168,11204,36,"Full Day","Breakfast/Lunch/Snacks","Outdoor (offsite)","Not offered","None"
"247","NYCEEC","Brooklyn","Parkside ECDC","718-722-6236","525 Parkside Ave","sandrahuntsmith@yahoo.com","",40.656094,-73.9561261,11226,40,"Full Day","Contact agency","Contact agency","Contact agency","None"
"248","NYCEEC","Brooklyn","Yeshiva Headstart 40th Street","718-633-2232","1402 40th St","mkramer@ykypupa.org","",40.638396,-73.984581,11218,16,"Full Day","Contact agency","Outdoor (onsite)","Offered","Income and other eligibility requirements apply"
"249","NYCEEC","Brooklyn","Yeshivah Of Flatbush","718-377-4040","919 East 10 St","agellman@flatbush.org","",40.626692,-73.966257,11230,110,"5-Hour","Contact agency","Contact agency","Contact agency","None"
"250","NYCEEC","Brooklyn","Yeshiva Of Kings Bay","718-646-8500","2611 Ave Z","myz@ykb.us","",40.5893988,-73.9431834,11235,18,"5-Hour","Contact agency","Contact agency","Contact agency","None"
"251","NYCEEC","Brooklyn","Yeshiva Ohr Shraga","718-252-7777","1102 Ave L","generaloffice@ohrshraga.org","http://ohrshraga.org",40.6197683,-73.9638527,11230,28,"Full Day","Breakfast/Lunch/Snacks","Indoor/Outdoor (onsite) ","Offered","None"
"252","NYCEEC","Brooklyn","Yeshivat Shaare Torah","718-437-6101","222 Ocean Pkwy","chavys2003@yahoo.com","",40.6443701,-73.9749689,11218,60,"5-Hour","Snacks","Indoor/Outdoor (onsite) ","Offered","None"
"253","NYCEEC","Brooklyn","Yeshiva Toras Emes","718-375-0900","1904 Ave N","yetoem@aol.com","",40.6157941,-73.9554506,11230,18,"5-Hour","Contact agency","Contact agency","Contact agency","None"
"254","NYCEEC","Brooklyn","Talmud Torah Crown Heights Yeshivah","718-444-5800","6363 Ave U","chyjoan@yahoo.com","",40.616454,-73.9131613,11234,40,"Full Day","Breakfast/Lunch/Snacks","Indoor/Outdoor (onsite) ","Not offered","None"
"255","NYCEEC","Brooklyn","Parkway School","718-346-0369","5566 Kings Hwy","gkgrant@aol.com","http://parkwayschool.org",40.6480028,-73.9248203,11203,54,"Full Day","Contact agency","Contact agency","Contact agency","None"
"256","NYCEEC","Brooklyn","Action Nursery","718-854-7777","1019 46th St","actionnursery@thejnet.com","",40.636013,-73.932238,11219,14,"Full Day","Breakfast/Lunch/Snacks","Outdoor (onsite)","Not offered","Income and other eligibility requirements apply"
"257","NYCEEC","Brooklyn","Brevoort Children's Center","718-778-1069","250 Ralph Ave","hlareche@bksny.org","http://bksny.org",40.6807928,-73.9236682,11233,19,"Full Day","Breakfast/Lunch/Snacks","Outdoor (onsite)","Offered","Income and other eligibility requirements apply"
"258","NYCEEC","Brooklyn","Edwards L Cleaveland","718-623-9803","1185 Park Pl","jmatison@bksny.org","http://bksny.org",40.6733259,-73.9384821,11213,26,"Full Day","Breakfast/Lunch/Snacks","Outdoor (onsite)","Not offered","Income and other eligibility requirements apply"
"259","NYCEEC","Brooklyn","Cortelyou ECC","718-282-6077","386 Marlborough Rd","sfrancis@mycecc.com","",40.6406387,-73.9645593,11226,36,"Full Day","Contact agency","Contact agency","Contact agency","None"
"260","NYCEEC","Brooklyn","BCS Duffield Children's Center","718-522-5296","101 Fleet Pl","ilopez@wearebcs.org","http://wearebcs.org",40.6927734,-73.9813316,11201,93,"Full Day","Breakfast/Lunch/Snacks","Indoor/Outdoor (onsite) ","Offered","Income and other eligibility requirements apply"
"261","NYCEEC","Brooklyn","Glennwood Avenue Head Start","718-859-7720","3017 Glenwood Rd","glenwood3017@gmail.com","",40.6342731,-73.9470887,11210,69,"Full Day","Breakfast/Lunch/Snacks","Indoor/Outdoor (onsite) ","Offered","Income and other eligibility requirements apply"
"262","NYCEEC","Brooklyn","East Midwood Hebrew Day School","718-253-1555","1256 East 21st St","regina2@emhds.org","http://emhds.org",40.6224333,-73.9549693,11210,34,"Full Day","Breakfast/Lunch/Snacks","Indoor/Outdoor (onsite) ","Not offered","None"
"263","NYCEEC","Brooklyn","Ahrc Francis Of Paola ELC","718-782-1462","201 Conselyea St","Teresa.DelPriore@ahrcnyc.org","http://schools.ahrcnyc.org",40.7155317,-73.9434397,11211,6,"Full Day","Contact agency","Indoor/Outdoor (onsite) ","Offered","None"
"264","NYCEEC","Brooklyn","Warbasse Nursery School","718-266-5585","2785 West 5th St","lauraok@warbassenurseryschool.com","http://warbassenurseryschool.com",40.5811394,-73.9709249,11224,16,"Full Day","Contact agency","Outdoor (onsite)","Offered","None"
"265","NYCEEC","Brooklyn","Neptune Avenue Head Start","718-332-8524","293 Neptune Ave","neptune293@gmail.com","",40.5814524,-73.9641987,11235,110,"Full Day","Breakfast/Lunch/Snacks","Indoor/Outdoor (onsite) ","Offered","Income and other eligibility requirements apply"
"266","NYCEEC","Brooklyn","NYL / WOC Midwood","718-382-1060","1520 East 13th St","Jessica.Molina@yai.org","http://yai.org/agencies/nyl",40.612421,-73.961008,11230,16,"Full Day","Contact agency","Indoor/Outdoor (onsite) ","Not offered","None"
"267","NYCEEC","Brooklyn","Hebrew Educational Society","718-241-3000","9502 Seaview Ave","Alessandra@thehes.org","http://thehes.org",40.6324983,-73.890744,11236,63,"Full Day","Breakfast/Lunch/Snacks","Indoor/Outdoor (onsite) ","Offered","Income and other eligibility requirements apply"
"268","NYCEEC","Brooklyn","Hanover Place CCC, LLC","347-916-0333","15 Hanover Pl","rcacere@hanoverchildcare.com","http://hanoverchildcare.com",40.6887435,-73.9822854,11201,160,"Full Day","Breakfast/Lunch/Snacks","Indoor/Outdoor (offsite)","Offered","None"
"269","NYCEEC","Brooklyn","Macademy","718-221-5566","1313 Un St","qkmacademy@aol.com","http://macademytech.org",40.669229,-73.948583,11225,18,"Full Day","Contact agency","Outdoor (onsite/offsite)","Offered","None"
"270","NYCEEC","Brooklyn","PAL World Of Creative Experiences Head Start","718-345-5219","280 Livonia Ave","dwhite@palnyc.org","http://palnyc.org",40.6624533,-73.9073622,11212,117,"Full Day","Breakfast/Lunch/Snacks","Outdoor (onsite)","Offered","Income and other eligibility requirements apply"
"271","NYCEEC","Brooklyn","Bishop Sexton","718-778-0292","933 Herkimer St","aalleyne@stmarksheadstart.org","http://stmarksheadstart.org",40.6783324,-73.9224746,11233,50,"Full Day","Breakfast/Lunch/Snacks","Outdoor (onsite)","Not offered","Income and other eligibility requirements apply"
"272","NYCEEC","Brooklyn","University Settlement Children's Corner","212-453-4595","565 Livonia Ave","kcohen@universitysettlement.org","http://universitysettlement.org",40.664671,-73.8962631,11207,68,"Full Day","Breakfast/Lunch","Indoor/Outdoor (onsite) ","Not offered","Income and other eligibility requirements apply"
"273","NYCEEC","Brooklyn","Highlights Academy, Inc.","718-953-5555","1688 President St","highlightsacademy@yahoo.com","http://highlightsacademyinc.com",40.6668072,-73.9316193,11213,40,"Full Day","Breakfast/Lunch/Snacks","Outdoor (onsite/offsite)","Offered","None"
"274","NYCEEC","Brooklyn","PAL La Puerta Abierta","718-373-1100","3001 West 37 St","rbhattacharjee@palnyc.org","http://palnyc.org",40.572736,-74.0021668,11224,30,"Full Day","Breakfast/Lunch","Outdoor (offsite)","Offered","Income and other eligibility requirements apply"
"275","NYCEEC","Brooklyn","Puerto Rican Family Institute, Inc.","718-388-6060","185 Marcy Ave","lisanchez@prfi.org","",40.7077926,-73.9580585,11211,25,"Both Full and 5-Hour","Breakfast/Lunch/Snacks","Indoor/Outdoor (offsite)","Offered","None"
"276","NYCEEC","Brooklyn","Hawthorne Corners DCC","718-282-7200","1950 Bedford Ave","cornersdcc@verizon.net","",40.657198,-73.9568668,11225,15,"Full Day","Breakfast/Lunch/Snacks","Outdoor (offsite)","Offered","Income and other eligibility requirements apply"
"277","NYCEEC","Brooklyn","Bambi DCC, Inc.","718-771-1603","300 Rogers Ave","bambicare@gmail.com","http://bambidcc.com",40.6660745,-73.9538864,11225,58,"Full Day","Breakfast/Lunch/Snacks","Outdoor (onsite)","Offered","None"
"278","NYCEEC","Brooklyn","Talmud Torah Ohr Moshe","718-234-6100","1774 58th St","ttohrmoshe@gmail.com","",40.62341,-73.9865043,11204,20,"Full Day","Contact agency","Contact agency","Contact agency","None"
"279","NYCEEC","Brooklyn","St. Francis Xavier","718-857-2559","763 President St","taylordorothy763@yahoo.com","http://sfxsparkslope.org",40.6744574,-73.9769303,11215,36,"Full Day","Lunch/Snacks","Indoor/Outdoor (onsite) ","Offered","None"
"280","NYCEEC","Brooklyn","Bedford Stuyvesant ECDC","718-455-5565","281 Stuyvesant Ave","spiveys@bsecdc.org","",40.6848864,-73.9321614,11221,18,"Full Day","Contact agency","Contact agency","Contact agency","None"
"281","NYCEEC","Brooklyn","Bushwick United HDFC 1","718-443-0134","136 Stanhope St","IRFANAK@BUSHWICKUNITED.ORG","http://bushwickunited.org",40.6981001,-73.9228275,11221,65,"Full Day","Breakfast/Lunch/Snacks","Outdoor (onsite)","Not offered","Income and other eligibility requirements apply"
"282","NYCEEC","Brooklyn","Cornerstone DCC","718-574-8300","289 Lewis Ave","cornerstonedcc@aol.com","",40.6862285,-73.935454,11221,20,"Full Day","Breakfast/Lunch/Snacks","Indoor/Outdoor (onsite) ","Offered","Income and other eligibility requirements apply"
"283","NYCEEC","Brooklyn","Block Institute","347-649-3601","133 27th Ave","nwu@blockinstitute.org","http://blockinstitute.org",40.5905007,-73.9872712,11214,32,"Full Day","Breakfast/Lunch/Snacks","Indoor/Outdoor (onsite) ","Not offered","None"
"284","NYCEEC","Brooklyn","Guild For Exceptional Children","718-435-2554","1273 57 St","alice@gecbklyn.org","http://gecbklyn.org",40.6308149,-73.9969332,11219,32,"Full Day","Breakfast/Lunch","Indoor/Outdoor (onsite) ","Not offered","None"
"285","NYCEEC","Brooklyn","Bet Yaakov Ohr Sarah","718-627-8758","1123 Ave N","tsena@orotsarah.com","",40.615411,-73.962665,11230,55,"Both Full and Half Day","Contact agency","Contact agency","Contact agency","None"
"286","NYCEEC","Brooklyn","Bet Yaakov Ateret Torah","718-375-7100","2166 Coney Is Ave","psoffice@ateret.net","",40.6040495,-73.9621602,11223,40,"5-Hour","Breakfast/Snacks","Indoor/Outdoor (onsite) ","Offered","None"
"287","NYCEEC","Brooklyn","Nat Azarow Children's Center","718-346-0924","232 Powell St","jcroskey@bksny.org","http://bksny.org",40.668845,-73.9039496,11212,40,"Full Day","Breakfast/Lunch/Snacks","Outdoor (onsite)","Offered","Income and other eligibility requirements apply"
"288","NYCEEC","Brooklyn","Bambi Day Care IV","718-332-8656","405 81st St","info@bambiacademy.com","http://bambidaycare.com",40.626482,-74.026319,11209,73,"Full Day","Breakfast/Lunch/Snacks","Outdoor (onsite)","Offered","None"
"289","NYCEEC","Brooklyn","PAL Carey Gardens","718-372-4044","2964 West 23rd St","Kchase@palnyc.org","http://palnyc.org",40.5742614,-73.9902335,11224,21,"Full Day","Breakfast/Lunch/Snacks","Outdoor (onsite)","Offered","Income and other eligibility requirements apply"
"290","NYCEEC","Brooklyn","St. Peter's Preschool","718-647-1014","109 Highland Pl","claradv@aol.com","",40.6826092,-73.8814623,11208,83,"Full Day","Breakfast/Lunch","Indoor/Outdoor (offsite)","Offered","None"
"291","NYCEEC","Brooklyn","Khyle Brenaj Kiddie Daycare Inc.","718-896-8108","9718 Flatlands Ave","parich@optonline.net","",40.6438609,-73.8999986,11236,20,"Full Day","Contact agency","Contact agency","Contact agency","None"
"292","NYCEEC","Brooklyn","Be Above #27","347-997-2488","779 East 49 St","beabove49street@yahoo.com","",40.6425233,-73.9301339,11203,57,"Full Day","Breakfast/Lunch/Snacks","Outdoor (onsite/offsite)","Offered","Income and other eligibility requirements apply"
"293","NYCEEC","Brooklyn","Tabernacle Church Of God DCC, Inc.","718-638-3209","34 Kosciuszko St","tabernacleupk@verizon.net","",40.6901516,-73.9536326,11205,60,"5-Hour","Breakfast/Lunch/Snacks","Outdoor (onsite)","Offered","None"
"294","NYCEEC","Brooklyn","Pine Street Day Care","718-235-1150","872 - 874 Cres St","pinestreetdaycarecenter@verizon.net","",40.665988,-73.8679609,11208,78,"Both Full and Half Day","Contact agency","Contact agency","Contact agency","None"
"295","NYCEEC","Brooklyn","Urban Strategies 1","718-235-6151","1091 Sutter Ave","usheadstart1@aol.com","",40.672174,-73.8781345,11208,119,"Full Day","Breakfast/Lunch/Snacks","Outdoor (onsite)","Not offered","Income and other eligibility requirements apply"
"296","NYCEEC","Brooklyn","Cypress Hills CCC","718-647-5005","108 Pne St","Jeromebass@yahoo.com","http://cypresshillschildcare.org",40.6839486,-73.8736808,11208,38,"Full Day","Breakfast/Lunch/Snacks","Outdoor (onsite)","Offered","Income and other eligibility requirements apply"
"297","NYCEEC","Brooklyn","Cortelyou Academy","718-421-9581","2739 Bedford Ave","sfrancis@mycecc.com","http://mycecc.com",40.636034,-73.9531516,11210,18,"Full Day","Contact agency","Contact agency","Contact agency","None"
"298","NYCEEC","Brooklyn","Raven's ECC, Inc.","718-927-2316","1102 East 92nd St","info@ravensschool.org","http://ravensschool.org",40.6422817,-73.906432,11236,69,"Full Day","Breakfast/Lunch/Snacks","Indoor/Outdoor (offsite)","Offered","None"
"299","NYCEEC","Brooklyn","Mary Bobb Learning Academy","718-604-4400","1187 Nostrand Ave","MaryBobbLearningAcademy@gmail.com","http://marybobb.com",40.65831,-73.94981,11225,91,"Full Day","Breakfast/Lunch/Snacks","Indoor/Outdoor (offsite)","Offered","None"
"300","NYCEEC","Brooklyn","BAbove Worldwide Institute - Tomer Devorah","347-402-5734","4500 9 Ave","cklein@babove.com","",40.6425276,-73.9989649,11220,30,"Full Day","Breakfast/Lunch/Snacks","None","Offered","Income and other eligibility requirements apply"
"301","NYCEEC","Brooklyn","New Life CDC 4","718-366-1668","1307 Greene Ave","lilibeth_1307@hotmail.com","",40.6984854,-73.9193958,11237,74,"Full Day","Breakfast/Lunch/Snacks","Indoor/Outdoor (offsite)","Offered","Income and other eligibility requirements apply"
"302","NYCEEC","Brooklyn","Brooklyn Chinese American Assoc. Day Care","718-851-0869","713 43rd St","acs@bca.net","http://bca.net",40.646262,-74.0012239,11232,93,"Full Day","Breakfast/Lunch/Snacks","Outdoor (offsite)","Offered","Income and other eligibility requirements apply"
"303","NYCEEC","Brooklyn","Brooklyn Developmental Center","718-235-8800","888 Fountain Ave","shayswann@aol.com","",40.6560891,-73.8654846,11208,17,"Full Day","Breakfast/Lunch/Snacks","Indoor/Outdoor (onsite) ","Offered","Income and other eligibility requirements apply"
"304","NYCEEC","Brooklyn","Bushwick United HDFC 6","718-453-5500","200 Central Ave","REGINAR@BUSHWICKUNITED.ORG","http://bushwickunited.org",40.6983178,-73.9259421,11221,64,"Full Day","Breakfast/Lunch/Snacks","Indoor/Outdoor (offsite)","Offered","Income and other eligibility requirements apply"
"305","NYCEEC","Brooklyn","Friends Of Crown Heights Educational Center #11","929-234-5010","995 Carroll St","Vgbenedio@foch.biz","http://fochdaycare.org",40.6678987,-73.9571316,11225,57,"Full Day","Breakfast/Lunch/Snacks","Indoor/Outdoor (onsite) ","Offered","Income and other eligibility requirements apply"
"306","NYCEEC","Brooklyn","Shirley Chisholm CCC Site 4 Somers","718-498-6200","33 Somers St","shirleychisholmdcc4@live.com","",40.6789082,-73.9119425,11233,36,"Full Day","Breakfast/Lunch/Snacks","Outdoor (onsite)","Not offered","Income and other eligibility requirements apply"
"307","NYCEEC","Brooklyn","St. Marks","718-287-7300","2017 Beverley Rd","adenis@stmarksheadstart.org","http://stmarksheadstart.org",40.6451809,-73.9596352,11226,114,"Full Day","Breakfast/Lunch/Snacks","Indoor/Outdoor (onsite) ","Not offered","Income and other eligibility requirements apply"
"308","NYCEEC","Brooklyn","Strong Place For Hope DCC - 2nd Street","718-499-0747","333 2nd St","strongplaceforhope2@hotmail.com","http://strongplaceforhopedaycare.com",40.6739633,-73.9835092,11215,27,"Full Day","Breakfast/Lunch/Snacks","Outdoor (offsite)","Offered","Income and other eligibility requirements apply"
"309","NYCEEC","Brooklyn","St. Andrews CDC","718-492-9678","4917 Fourth Ave","","http://lutheranhealthcare.org/main/standrewscommunitydaycare.aspx",40.6465163,-74.0120245,11220,20,"Full Day","Breakfast/Lunch","Outdoor (onsite)","Offered","Income and other eligibility requirements apply"
"310","NYCEEC","Brooklyn","Traditional Educational Center","718-443-2577","1469b Broadway","traditional1469@verizon.net","",40.6877873,-73.9185616,11221,29,"Full Day","Breakfast/Lunch/Snacks","Indoor/Outdoor (offsite)","Offered","Income and other eligibility requirements apply"
"311","NYCEEC","Brooklyn","Yeled V'Yalda","718-514-8930","1377 42nd St","rherbst@yeled.org","http://yeled.org",40.6378114,-73.9861272,11219,17,"5-Hour","Lunch","Outdoor (offsite)","Offered","None"
"312","NYCEEC","Brooklyn","Yeled V'Yalda 1257","718-514-8712","1257 38th St","mhorowitz@yeled.org","http://yeled.org",40.6418149,-73.9861082,11218,110,"5-Hour","Breakfast/Lunch/Snacks","Indoor/Outdoor (onsite) ","Offered","None"
"313","NYCEEC","Brooklyn","Mevakshei Hashem","718-435-8900","550 Ocean Pkwy","pschiff@mevakshai.org","",40.649136,-73.961246,11226,36,"Full Day","Lunch/Snacks","Outdoor (offsite)","Offered","None"
"314","NYCEEC","Brooklyn","Great Oaks Academy","718-915-3015","4718 Farragut Rd","rayed@mohdc.com","http://mohdcsmartstart.com",40.6370187,-73.9310737,11203,54,"Full Day","Contact agency","Contact agency","Contact agency","None"
"315","NYCEEC","Brooklyn","Urban Strategies 5 - Georgia L Mcmurray ECDC","718-235-1215","675 Lincoln Ave","usdaycare3@optimum.net","http://childcarecenter.us",40.6727761,-73.866156,11208,40,"Full Day","Breakfast/Lunch/Snacks","Outdoor (offsite)","Offered","Income and other eligibility requirements apply"
"316","NYCEEC","Brooklyn","New Life CDC 1","718-821-3432","295 Woodbine St","snewlife1@gmail.com","",40.6963948,-73.9132062,11237,65,"Full Day","Breakfast/Lunch/Snacks","Outdoor (onsite)","Offered","Income and other eligibility requirements apply"
"317","NYCEEC","Brooklyn","Kreative Kare DCC, Inc.","718-386-3242","292 Palmetto St","kreativekare@aol.com","",40.6966034,-73.9135692,11237,20,"Full Day","Lunch/Snacks","Outdoor (onsite/offsite)","Offered","None"
"318","NYCEEC","Brooklyn","All My Children Day Care Site 16","718-493-1100","739 East New York Ave","ckratz@amcearlylearn.com","",40.6625797,-73.9380221,11203,18,"Full Day","Breakfast/Lunch/Snacks","Outdoor (offsite)","Offered","None"
"319","NYCEEC","Brooklyn","Yeled V'Yalda ECC, Inc.","718-514-8980","600 Mcdonald Ave","Blemmer@yeled.org","http://yeled.org",40.6394186,-73.9792428,11218,45,"5-Hour","Contact agency","Contact agency","Contact agency","None"
"320","NYCEEC","Brooklyn","Shalva UPK I","718-438-0060","1363 50 St","YYS@BobovSchool.com","",40.633629,-73.990819,11219,60,"Full Day","Contact agency","Contact agency","Contact agency","None"
"321","NYCEEC","Brooklyn","Be Above 37","718-774-4131","570 Crown St","uly@yttl.org","",40.665288,-73.9395071,11213,60,"Full Day","Breakfast/Lunch/Snacks","Outdoor (onsite)","Offered","Income and other eligibility requirements apply"
"322","NYCEEC","Brooklyn","Cooper Park CCC","718-389-5959","292 Frost St","cooperpark@e-s-s.org","http://essnyc.org/ece",40.718729,-73.9396354,11222,14,"Full Day","Breakfast/Lunch/Snacks","Outdoor (onsite)","Offered","Income and other eligibility requirements apply"
"323","NYCEEC","Brooklyn","All My Children Day Care 10","718-576-6812","420 Lefferts Ave","info@allmychildrendaycare.com","http://allmychildrendaycare.com",40.6622569,-73.947273,11225,54,"Full Day","Breakfast/Lunch/Snacks","Outdoor (onsite)","Offered","Income and other eligibility requirements apply"
"324","NYCEEC","Brooklyn","Marcy Children's Center","718-855-7252","494 Marcy Ave","betinolr@e-s-s.org","",40.6983022,-73.950276,11206,20,"Full Day","Breakfast/Lunch/Snacks","Outdoor (onsite)","Offered","Income and other eligibility requirements apply"
"325","NYCEEC","Brooklyn","LSSMNY : Early Life Children's Center 8","347-689-8303","265 Marcus Garvey Blvd","SALLEYNE@LSSNY.ORG","http://early-life.org",40.6885488,-73.9388162,11221,50,"Full Day","Breakfast/Lunch/Snacks","Indoor","Offered","Income and other eligibility requirements apply"
"326","NYCEEC","Brooklyn","Saratoga - Morris Koppelman Center","718-345-6666","774 Saratoga Ave","SAndrews@sco.org","http://sco.org",40.6616832,-73.9160048,11212,40,"Full Day","Breakfast/Lunch/Snacks","Indoor/Outdoor (onsite) ","Offered","Income and other eligibility requirements apply"
"327","NYCEEC","Brooklyn","Yeled V'Yalda ECC, Inc.","718-854-6922","1349 / 53 50th St","Sschwartz@yeled.org","",40.633818,-73.991135,11219,44,"5-Hour","Breakfast/Lunch/Snacks","Indoor/Outdoor (onsite) ","Offered","None"
"328","NYCEEC","Brooklyn","PAL Arnold And Marie Schwartz Early Learn Center","718-342-4724","452 Pennsylvania Ave","ARudder@palnyc.org","http://palnyc.org",40.6660799,-73.8947973,11207,49,"Full Day","Breakfast/Lunch/Snacks","Indoor/Outdoor (onsite) ","Offered","Income and other eligibility requirements apply"
"329","NYCEEC","Brooklyn","Friends Of Crown Heights Educational Center","929-234-2866","921 Hegeman Ave","bobb@foch.biz","http://fochdaycare.org",40.6655645,-73.8791633,11208,53,"Full Day","Breakfast/Lunch/Snacks","Indoor/Outdoor (onsite) and Outdoor (offsite)","Offered","Income and other eligibility requirements apply"
"330","NYCEEC","Brooklyn","Friends Of Crown Heights 19","929-234-2838","370 New Lots Ave","CSORIANO8@YAHOO.COM","http://fochdaycare.org",40.6615948,-73.8933066,11207,61,"Full Day","Breakfast/Lunch/Snacks","Indoor/Outdoor (onsite) ","Offered","Income and other eligibility requirements apply"
"331","NYCEEC","Brooklyn","Friends Of Crown Heights 10","929-234-2821","1491 Bedford Ave","Alexander@fochdaycare.org","http://fochdaycare.org",40.6716911,-73.9545296,11216,51,"Full Day","Breakfast/Lunch/Snacks","Indoor/Outdoor (onsite) ","Offered","Income and other eligibility requirements apply"
"332","NYCEEC","Brooklyn","Shirley Chisholm DCC Site 5 Advent Center","718-452-1200","265 Sumpter St","advent265@aol.com","",40.680893,-73.914687,11233,20,"Full Day","Breakfast/Lunch/Snacks","Indoor/Outdoor (onsite) ","Not offered","Income and other eligibility requirements apply"
"333","NYCEEC","Brooklyn","YWCA - NYC Brownsville ELC","718-342-2905","1592 East New York Ave","aalexander@ywcanyc.org","http://ywcanyc.org",40.6722469,-73.9089099,11212,9,"Full Day","Breakfast/Lunch/Snacks","Outdoor (onsite)","Offered","Income and other eligibility requirements apply"
"334","NYCEEC","Brooklyn","Saratoga II - Shirley Chisholm Center","718-443-4100","69 Saratoga Ave","ddavidson@sco.org","http://sco.org",40.6845753,-73.9171998,11233,89,"Full Day","Breakfast/Lunch/Snacks","Outdoor (onsite)","Offered","Income and other eligibility requirements apply"
"335","NYCEEC","Brooklyn","Strong Place For Hope DCC - Atlantic","718-522-1351","460 Atlantic Ave","Jrogers775@gmail.com","http://strongplaceforhopedaycare.com",40.6860743,-73.9831035,11217,32,"Full Day","Breakfast/Lunch/Snacks","Indoor/Outdoor (onsite) ","Offered","Income and other eligibility requirements apply"
"336","NYCEEC","Brooklyn","Friends Of Crown Heights 16","929-234-2870","668 Logan St","gdublin4@foch.biz","http://fochdaycare.org",40.6694093,-73.8750319,11208,50,"Full Day","Breakfast/Lunch/Snacks","Indoor/Outdoor (onsite) and Outdoor (offsite)","Offered","Income and other eligibility requirements apply"
"337","NYCEEC","Brooklyn","LSSMNY : Early Life Children's Center 9","718-443-4500","1175 Gates Ave","lsingh@lssny.org","http://lssny.org",40.6917498,-73.9201181,11221,71,"Full Day","Breakfast/Lunch/Snacks","Indoor","Offered","Income and other eligibility requirements apply"
"338","NYCEEC","Brooklyn","Williamsburg CCC","347-943-7682","110 Taylor St","donatod@e-s-s.org","http://essny.org",40.7051454,-73.9638461,11249,14,"Full Day","Breakfast/Lunch/Snacks","Outdoor (onsite)","Offered","Income and other eligibility requirements apply"
"339","NYCEEC","Brooklyn","Bushwick United HDFC 9","347-497-3676","741 Flushing Ave","","http://bushwickunited.org/",40.70081,-73.943224,11206,29,"Full Day","Breakfast/Lunch/Snacks","Outdoor (onsite/offsite)","Not offered","Income and other eligibility requirements apply"
"340","NYCEEC","Brooklyn","Strong Place For Hope DCC - Clinton St.","718-624-2993","595 Clinton St","strongplace@hotmail.com","http://strongplaceforhopedaycare.com",40.6749008,-74.0015897,11231,39,"Full Day","Breakfast/Lunch/Snacks","Indoor/Outdoor (onsite) ","Offered","Income and other eligibility requirements apply"
"341","NYCEEC","Brooklyn","Friends Of Crown Heights 29","718-778-1498","1435 Prospect Pl","saunders@foch.biz","http://fochdaycare.org",40.6733783,-73.9288404,11213,42,"Full Day","Lunch/Snacks","Indoor/Outdoor (onsite) ","Not offered","Income and other eligibility requirements apply"
"342","NYCEEC","Brooklyn","All My Children # 11","718-576-6812","317 Rogers Ave","info@amcearlylearn.com","http://allmychildrendaycare.com",40.6656628,-73.9534229,11225,47,"Full Day","Breakfast/Lunch/Snacks","Outdoor (onsite)","Offered","Income and other eligibility requirements apply"
"343","NYCEEC","Brooklyn","Friends Of Crown Heights 15","718-638-8686","2505 Pitkin Ave","davis@foch.biz","http://fochdaycare.org",40.6745464,-73.8796376,11208,72,"Full Day","Lunch/Snacks","Indoor/Outdoor (onsite) ","Offered","Income and other eligibility requirements apply"
"344","NYCEEC","Brooklyn","United Academy - Wythe Avenue","718-935-9848","722 Wythe Ave","sdsalamon@gmail.com","",40.7018093,-73.9616164,11249,20,"Full Day","Contact agency","Contact agency","Contact agency","Income and other eligibility requirements apply"
"345","NYCEEC","Brooklyn","Baais Yaakov Faigeh Of Schonberger Of Adas Yereim","718-435-5111","1169 43rd St","yleifer@adasyereim.org","",40.6402547,-73.9912983,11219,36,"5-Hour","Breakfast/Lunch/Snacks","Indoor/Outdoor (onsite) ","Offered","None"
"346","NYCEEC","Brooklyn","Infant And Child Learning Center, The","718-675-1249","670 Parkside Ave","Margot.Sigmone@Downstate.edu","http://iclcdownstate.com",40.6559332,-73.9513126,11226,18,"Full Day","Breakfast/Lunch/Snacks","Indoor/Outdoor (onsite) ","Offered","None"
"347","NYCEEC","Brooklyn","The Little Darlings DCC, Inc.","718-469-6207","1531 Nostrand Ave","morrisdaycare@optimum.net","",40.648749,-73.949055,11226,18,"Full Day","Contact agency","Contact agency","Contact agency","None"
"348","NYCEEC","Brooklyn","Friends Of Crown Heights 18","929-234-2955","851 Liberty Ave","dkny5107@aol.com","http://fochdaycare.org",40.6773373,-73.8780817,11208,35,"Full Day","Lunch/Snacks","Indoor/Outdoor (onsite) ","Offered","Income and other eligibility requirements apply"
"349","NYCEEC","Brooklyn","Bambi DCC, Inc.","718-771-1603","138 Hancock St","bambicare@gmail.com","http://bambidcc.com",40.6822947,-73.9503346,11216,20,"Full Day","Breakfast/Lunch/Snacks","Outdoor (onsite/offsite)","Offered","None"
"350","NYCEEC","Brooklyn","Young Minds DCC","718-622-8622","972 Fulton St","msmith@fortgreenecouncil.org","http://facebook.com/fgcyoungminds",40.6823101,-73.9621256,11238,20,"Full Day","Breakfast/Lunch/Snacks","Indoor/Outdoor (onsite) and Outdoor (offsite)","Offered","None"
"351","NYCEEC","Brooklyn","Community Parents, Inc.","718-221-2531","60 East 93rd St","clairewflor12@optonline.net","",40.663356,-73.9278196,11212,58,"Full Day","Breakfast/Lunch/Snacks","Outdoor (onsite)","Offered","Income and other eligibility requirements apply"
"352","NYCEEC","Brooklyn","Bedford Stuyvesant ECDC 5Q","718-453-0788","5 Quincy St","charlesm@bsecdc.org","",40.6859886,-73.9611117,11238,38,"5-Hour","Breakfast/Lunch/Snacks","Indoor/Outdoor (offsite)","Not offered","None"
"353","NYCEEC","Brooklyn","Northside Center For Child Development","347-505-5517","44 - 60 Rockwell Pl","drobinson@norhtsidecenter.org","http://northsidecenter.org",40.6887135,-73.9796512,11201,20,"Full Day","Breakfast/Lunch/Snacks","Outdoor (onsite)","Not offered","None"
"354","NYCEEC","Brooklyn","Salvation Army, Bedford","718-552-2690","110 Kosciusko St","Sarah.Fay@USE.SalvationArmy.Org","http://ny.salvationarmy.org/greaternewyork/daycare-programs",40.6905242,-73.95067,11216,116,"Full Day","Breakfast/Lunch/Snacks","Indoor/Outdoor (onsite) ","Offered","Income and other eligibility requirements apply"
"355","NYCEEC","Brooklyn","Grand Street Settlement Dual #3","718-381-8900","319 Stanhope St","rebecarodriguez@grandsettlement.org","http://grandsettlement.org",40.7030741,-73.9185646,11237,40,"Full Day","Breakfast/Lunch/Snacks","Indoor/Outdoor (offsite)","Not offered","Income and other eligibility requirements apply"
"356","NYCEEC","Brooklyn","Sumner Children's Center","718-455-3471","860 Park Ave","ejaffe@bksny.org","http://bksny.org",40.698215,-73.9406507,11206,29,"Full Day","Breakfast/Lunch/Snacks","Outdoor (onsite)","Offered","Income and other eligibility requirements apply"
"357","NYCEEC","Brooklyn","Tompkins Children's Center","718-782-9140","730 Park Ave","mthompson@bksny.org","http://bksny.org",40.6976371,-73.946232,11206,33,"Full Day","Breakfast/Lunch","Outdoor (onsite)","Offered","Income and other eligibility requirements apply"
"358","NYCEEC","Brooklyn","Stagg Street Center For Children","718-388-1395","77 Stagg St","daycare77@aol.com","",40.7093369,-73.9473935,11206,70,"Full Day","Breakfast/Lunch/Snacks","Indoor/Outdoor (onsite) ","Offered","Income and other eligibility requirements apply"
"359","NYCEEC","Brooklyn","Bushwick United HDFC 4","347-269-8152","178 Leonard St","catherinel@bushwickunited.org","http://bushwickunited.org",40.7102496,-73.9465202,11206,21,"Full Day","Breakfast/Lunch/Snacks","Indoor/Outdoor (offsite)","Not offered","Income and other eligibility requirements apply"
"360","NYCEEC","Brooklyn","Graham CCC","718-387-9482","222 Graham Ave","grahamchildcare@verizon.net","http://colonysouth.org",40.7098685,-73.9431992,11206,40,"Full Day","Breakfast/Lunch/Snacks","Outdoor (onsite)","Not offered","Income and other eligibility requirements apply"
"361","NYCEEC","Brooklyn","Tiferes Bnos","718-599-2900","80 Skillman St","bailar@tiferesbnos.org","",40.6961065,-73.9576199,11205,40,"5-Hour","Contact agency","Contact agency","Contact agency","None"
"362","NYCEEC","Brooklyn","Audrey Johnson DCC","718-574-0130","272 Moffat St","audreyjo272@aol.com","http://lifetech.org",40.6896779,-73.9040131,11207,74,"Full Day","Breakfast/Lunch","Indoor/Outdoor (onsite) ","Not offered","Income and other eligibility requirements apply"
"363","NYCEEC","Brooklyn","Small World","718-963-0330","211 Ainslie St","mrochford@stnicksalliance.org","",40.7131363,-73.9455716,11211,40,"Full Day","Breakfast/Lunch/Snacks","Indoor/Outdoor (onsite) ","Offered","None"
"364","NYCEEC","Brooklyn","Nuestros Ninos DCC II","718-218-8275","243 South 2nd St","NuestrosNinosCDS@aol.com","",40.711913,-73.957756,11211,28,"Full Day","Breakfast/Lunch","Outdoor (onsite)","Offered","Income and other eligibility requirements apply"
"365","NYCEEC","Brooklyn","Williamsburg Northside Pre - School","718-599-7300","299 North 7th St","tsmith@willnorth.org","http://willnorth.org",40.714924,-73.9528371,11211,58,"5-Hour","Snacks","Indoor/Outdoor (onsite) and Outdoor (offsite)","Not offered","None"
"366","NYCEEC","Brooklyn","Our Saviour's Lutheran Preschool","718-745-0020","414 80th St","oslpreschool@verizon.net","http://oursaviourslutheranpreschool.com",40.6266863,-74.026013,11209,76,"Full Day","Breakfast/Lunch","Indoor/Outdoor (onsite) ","Offered","None"
"367","NYCEEC","Brooklyn","Brooklyn Chinese - American Assoc.","718-438-0008","812 54th St","Upk@bca.net","http://bca.net",40.638474,-74.0058897,11220,85,"Full Day","Breakfast/Lunch/Snacks","Outdoor (onsite/offsite)","Not offered","Income and other eligibility requirements apply"
"368","NYCEEC","Brooklyn","Brooklyn Free Space","718-965-3135","298 Sixth Ave","mikia@brooklynfreespace.org","http://brooklynfreespace.org",40.6722376,-73.9804691,11215,28,"Full Day","Snacks","Indoor/Outdoor (offsite)","Offered","None"
"369","NYCEEC","Brooklyn","Chick Peas Child Care","347-878-8732","451 7th Ave","admissions@chickpeas.org","http://chickpeas.org",40.6627933,-73.984701,11215,12,"Full Day","Contact agency","Outdoor (onsite)","Not offered","None"
"370","NYCEEC","Brooklyn","Bay Ridge CCC","718-768-5030","314 - 44th St","Bayridgechildcare@twcmetrobiz.com","",40.650666,-74.010943,11220,60,"Full Day","Breakfast/Lunch/Snacks","Outdoor (onsite/offsite)","Not offered","Income and other eligibility requirements apply"
"371","NYCEEC","Brooklyn","Hanson Place CDC, Inc.","718-237-4303","55 Hanson Pl","carol.brathwaite@yahoo.com","http://hansonplaceinc.com",40.6856283,-73.9757756,11217,20,"Full Day","Contact agency","Indoor/Outdoor (offsite)","Offered","None"
"372","NYCEEC","Brooklyn","A.C.E. ECC","718-439-0450","199 14th Street2nd Floor","aguo@lmcmc.com","",40.6671728,-73.9904312,11215,17,"Full Day","Breakfast/Lunch/Snacks","Indoor/Outdoor (offsite)","Offered","Income and other eligibility requirements apply"
"373","NYCEEC","Brooklyn","A Fantis Parochial School","718-624-0501","195 State St","upkdirector@afantis.org","",40.6903052,-73.9913524,11201,40,"Full Day","Contact agency","Contact agency","Contact agency","None"
"374","NYCEEC","Brooklyn","Warren Street Center","718-237-9578","343 Warren St","nsingh@lmcmc.com","http://lutheranhealthcare.org/main/warrenstreetcenterforchildrenandfamilies.aspx",40.6852728,-73.9902123,11201,26,"Full Day","Breakfast/Lunch/Snacks","Indoor/Outdoor (onsite) and Outdoor (offsite)","Offered","Income and other eligibility requirements apply"
"375","NYCEEC","Brooklyn","Sunset Park Children's School","718-439-3323","4616 4th Ave","mothergoose11232@gmail.com","http://sunsetparkchild.com",40.6484986,-74.0110015,11220,18,"Full Day","Contact agency","Contact agency","Contact agency","Income and other eligibility requirements apply"
"376","NYCEEC","Brooklyn","Therapy And Learning Center, Inc.","718-290-2750","1723 8th Ave","sandee.bennett@tlckids.org","",40.658992,-73.98471,11215,32,"Full Day","Contact agency","Contact agency","Contact agency","None"
"377","NYCEEC","Brooklyn","Nesivos Bais Yaakov","718-972-0804","1021 45th St","nbyupk@gmail.com","",40.6410135,-73.9955942,11219,40,"5-Hour","Lunch/Snacks","Outdoor (onsite/offsite)","Offered","None"
"378","NYCEEC","Brooklyn","Bedford - Stuyvesant ECDC","718-453-0500","275 Marcus Garvey Blvd","spiveys@bsecdc.org","",40.6882049,-73.939058,11221,40,"Full Day","Contact agency","Contact agency","Contact agency","None"
"379","NYCEEC","Brooklyn","Bedford - Stuyvesant ECDC","718-453-0605","214 Stuyvesant Ave","rattanik@bsecdc.org","",40.6877929,-73.9331618,11221,37,"Full Day","Breakfast/Lunch/Snacks","Outdoor (offsite)","Not offered","None"
"380","NYCEEC","Brooklyn","Bedford Stuyvesant ECDC 260","718-453-0722","260 Jefferson Ave","foxcasalk@bsecdc.org","",40.6833632,-73.9471733,11216,20,"5-Hour","Breakfast/Lunch/Snacks","Indoor/Outdoor (onsite) ","Offered","None"
"381","NYCEEC","Brooklyn","Bedford Stuyvesant ECDC 262","718-453-0760","262 Lexington Ave","foxcasalk@bsecdc.org","",40.6876111,-73.9514253,11216,30,"5-Hour","Breakfast/Lunch/Snacks","Outdoor (onsite)","Offered","None"
"382","NYCEEC","Brooklyn","Bedford Stuyvesant ECDC 265","718-455-5565","813 Hancock St","mimsd@bsecdc.org","",40.685878,-73.922772,11233,48,"5-Hour","Breakfast/Lunch/Snacks","Outdoor (onsite)","Offered","None"
"383","NYCEEC","Brooklyn","Bedford - Stuyvesant ECDC","718-453-0681","971 Dekalb Ave","gonzalezt@bsecdc.org","",40.6931113,-73.9363881,11221,20,"Full Day","Breakfast/Lunch/Snacks","Indoor/Outdoor (offsite)","Offered","None"
"384","NYCEEC","Brooklyn","Billy Martin CDC","718-857-5630","333 Classon Ave","billymartin333@yahoo.com","",40.6898512,-73.9598459,11205,18,"Full Day","Contact agency","Contact agency","Contact agency","Income and other eligibility requirements apply"
"385","NYCEEC","Brooklyn","Community Parents Head Start","718-771-4002","90 Chauncey St","cycummings@optimum.net","",40.6799752,-73.9297892,11233,30,"Full Day","Breakfast/Lunch/Snacks","Outdoor (onsite)","Offered","Income and other eligibility requirements apply"
"386","NYCEEC","Brooklyn","Mary McLeod Bethune CDC","718-455-5137","360 Pulaski St","marybethune360@gmail.com","http://marymcleodbethunechilddevelopmentcenter.com",40.6936525,-73.9364096,11206,36,"Full Day","Breakfast/Lunch/Snacks","Indoor/Outdoor (onsite) ","Offered","None"
